Calendar Year,AGE ID,School Name,Suburb,State,Postcode,School Sector,School Type,Campus Type,Rolled Reporting Description,Governing Body,Year Range,Geolocation,ICSEA,Bottom SEA Quarter (%),Lower Middle SEA Quarter (%),Upper Middle SEA Quarter (%),Top SEA Quarter (%),Teaching Staff,Full Time Equivalent Teaching Staff,Non-Teaching Staff,Full Time Equivalent Non-Teaching Staff,Total Enrolments,Girls Enrolments,Boys Enrolments,Full Time Equivalent Enrolments,Indigenous Enrolments (%),Language Background Other Than English (%),Address,Latitude,Longitudes,HubExistance
2016,28858,Staines Memorial College,Redbank Plains,QLD,4301,Independent,Combined,School Single Entity,Individual Reporting,Christian Community Ministries Ltd,Prep-12,Major Cities,993,30,34,26,10,35,31.1,35,24.4,442,211,231,441.5,4,5,"Staines Memorial College, Redbank Plains, QLD, 4301","{'results': [{'address_components': [{'long_name': '227', 'short_name': '227', 'types': ['street_number']}, {'long_name': 'School Road', 'short_name': 'School Rd', 'types': ['route']}, {'long_name': 'Redbank Plains', 'short_name': 'Redbank Plains', 'types': ['locality', 'political']}, {'long_name': 'City of Ipswich', 'short_name': 'City of Ipswich', 'types': ['administrative_area_level_2', 'political']}, {'long_name': 'Queensland', 'short_name': 'QLD', 'types': ['administrative_area_level_1', 'political']}, {'long_name': 'Australia', 'short_name': 'AU', 'types': ['country', 'political']}, {'long_name': '4301', 'short_name': '4301', 'types': ['postal_code']}], 'formatted_address': '227 School Rd, Redbank Plains QLD 4301, Australia', 'geometry': {'location': {'lat': -27.6687102, 'lng': 152.8507653}, 'location_type': 'ROOFTOP', 'viewport': {'northeast': {'lat': -27.6673612197085, 'lng': 152.8521142802915}, 'southwest': {'lat': -27.6700591802915, 'lng': 152.8494163197085}}}, 'place_id': 'ChIJwYGi4ulKkWsRMmqYXEfkwc0', 'plus_code': {'compound_code': '8VJ2+G8 Redbank Plains, Queensland, Australia', 'global_code': '5R4J8VJ2+G8'}, 'types': ['establishment', 'point_of_interest', 'school']}], 'status': 'OK'}",152.8507653,y
2016,8571,Bass Hill Public School,Bass Hill,NSW,2197,Government,Primary,School Single Entity,Individual Reporting,Department of Education NSW,P-6,Major Cities,923,62,25,11,2,27,31.5,5,4.1,354,168,186,354,3,82,"Bass Hill Public School, Bass Hill, NSW, 2197","{'results': [{'address_components': [{'long_name': '611', 'short_name': '611', 'types': ['street_number']}, {'long_name': 'Hume Highway', 'short_name': 'Hume Hwy', 'types': ['route']}, {'long_name': 'Bass Hill', 'short_name': 'Bass Hill', 'types': ['locality', 'political']}, {'long_name': 'Bankstown City Council', 'short_name': 'Bankstown', 'types': ['administrative_area_level_2', 'political']}, {'long_name': 'New South Wales', 'short_name': 'NSW', 'types': ['administrative_area_level_1', 'political']}, {'long_name': 'Australia', 'short_name': 'AU', 'types': ['country', 'political']}, {'long_name': '2197', 'short_name': '2197', 'types': ['postal_code']}], 'formatted_address': '611 Hume Hwy, Bass Hill NSW 2197, Australia', 'geometry': {'location': {'lat': -33.9054413, 'lng': 151.0060266}, 'location_type': 'ROOFTOP', 'viewport': {'northeast': {'lat': -33.9040923197085, 'lng': 151.0073755802915}, 'southwest': {'lat': -33.9067902802915, 'lng': 151.0046776197085}}}, 'place_id': 'ChIJH9Ob2zO8EmsRxm51KB0pT_0', 'plus_code': {'compound_code': '32V4+RC Bass Hill, New South Wales, Australia', 'global_code': '4RRH32V4+RC'}, 'types': ['establishment', 'point_of_interest', 'primary_school', 'school']}], 'status': 'OK'}",151.0060266,y
2016,8551,Bossley Park Public School,Bossley Park,NSW,2176,Government,Primary,School Single Entity,Individual Reporting,Department of Education NSW,K-6,Major Cities,966,43,29,20,8,23,25.3,6,3.2,413,205,208,413,1,82,"Bossley Park Public School, Bossley Park, NSW, 2176","{'results': [{'address_components': [{'long_name': 'Marconi Road', 'short_name': 'Marconi Rd', 'types': ['route']}, {'long_name': 'Bossley Park', 'short_name': 'Bossley Park', 'types': ['locality', 'political']}, {'long_name': 'Fairfield City Council', 'short_name': 'Fairfield', 'types': ['administrative_area_level_2', 'political']}, {'long_name': 'New South Wales', 'short_name': 'NSW', 'types': ['administrative_area_level_1', 'political']}, {'long_name': 'Australia', 'short_name': 'AU', 'types': ['country', 'political']}, {'long_name': '2176', 'short_name': '2176', 'types': ['postal_code']}], 'formatted_address': 'Marconi Rd, Bossley Park NSW 2176, Australia', 'geometry': {'location': {'lat': -33.8584374, 'lng': 150.8831078}, 'location_type': 'GEOMETRIC_CENTER', 'viewport': {'northeast': {'lat': -33.8570884197085, 'lng': 150.8844567802915}, 'southwest': {'lat': -33.8597863802915, 'lng': 150.8817588197085}}}, 'place_id': 'ChIJgUSQUcKWEmsRRkSH9ixvNq0', 'plus_code': {'compound_code': '4VRM+J6 Bossley Park, New South Wales, Australia', 'global_code': '4RRG4VRM+J6'}, 'types': ['establishment', 'point_of_interest', 'primary_school', 'school']}, {'address_components': [{'long_name': '36-44', 'short_name': '36-44', 'types': ['street_number']}, {'long_name': 'Prairie Vale Road', 'short_name': 'Prairie Vale Rd', 'types': ['route']}, {'long_name': 'Bossley Park', 'short_name': 'Bossley Park', 'types': ['locality', 'political']}, {'long_name': 'Fairfield City Council', 'short_name': 'Fairfield', 'types': ['administrative_area_level_2', 'political']}, {'long_name': 'New South Wales', 'short_name': 'NSW', 'types': ['administrative_area_level_1', 'political']}, {'long_name': 'Australia', 'short_name': 'AU', 'types': ['country', 'political']}, {'long_name': '2176', 'short_name': '2176', 'types': ['postal_code']}], 'formatted_address': '36-44 Prairie Vale Rd, Bossley Park NSW 2176, Australia', 'geometry': {'location': {'lat': -33.8709085, 'lng': 150.8750357}, 'location_type': 'ROOFTOP', 'viewport': {'northeast': {'lat': -33.8695595197085, 'lng': 150.8763846802915}, 'southwest': {'lat': -33.87225748029149, 'lng': 150.8736867197085}}}, 'place_id': 'ChIJRU8tKbqWEmsRlxiKiknUcIE', 'plus_code': {'compound_code': '4VHG+J2 Bossley Park, New South Wales, Australia', 'global_code': '4RRG4VHG+J2'}, 'types': ['establishment', 'point_of_interest', 'school', 'secondary_school']}], 'status': 'OK'}",150.8831078,y
2016,8158,Fairfield West Public School,Fairfield West,NSW,2165,Government,Primary,School Single Entity,Individual Reporting,Department of Education NSW,"U, K-6",Major Cities,936,55,27,15,4,39,47.7,9,10.5,732,358,374,732,1,90,"Fairfield West Public School, Fairfield West, NSW, 2165","{'results': [{'address_components': [{'long_name': 'Palmerston Road', 'short_name': 'Palmerston Rd', 'types': ['route']}, {'long_name': 'Fairfield West', 'short_name': 'Fairfield West', 'types': ['locality', 'political']}, {'long_name': 'Fairfield City Council', 'short_name': 'Fairfield', 'types': ['administrative_area_level_2', 'political']}, {'long_name': 'New South Wales', 'short_name': 'NSW', 'types': ['administrative_area_level_1', 'political']}, {'long_name': 'Australia', 'short_name': 'AU', 'types': ['country', 'political']}, {'long_name': '2165', 'short_name': '2165', 'types': ['postal_code']}], 'formatted_address': 'Palmerston Rd, Fairfield West NSW 2165, Australia', 'geometry': {'location': {'lat': -33.8693072, 'lng': 150.9247308}, 'location_type': 'GEOMETRIC_CENTER', 'viewport': {'northeast': {'lat': -33.86795821970851, 'lng': 150.9260797802915}, 'southwest': {'lat': -33.8706561802915, 'lng': 150.9233818197085}}}, 'place_id': 'ChIJf9fR4kWWEmsReJDylF4J47E', 'plus_code': {'compound_code': '4WJF+7V Fairfield West, New South Wales, Australia', 'global_code': '4RRG4WJF+7V'}, 'types': ['establishment', 'point_of_interest', 'primary_school', 'school']}], 'status': 'OK'}",150.9247308,y
2016,7793,Granville Public School,Granville,NSW,2142,Government,Primary,School Single Entity,Individual Reporting,Department of Education NSW,"U, P-6",Major Cities,957,45,29,19,6,41,40.3,11,10.3,569,270,299,569,1,91,"Granville Public School, Granville, NSW, 2142","{'results': [{'address_components': [{'long_name': 'Lena Street', 'short_name': 'Lena St', 'types': ['route']}, {'long_name': 'Granville', 'short_name': 'Granville', 'types': ['locality', 'political']}, {'long_name': 'Cumberland Council', 'short_name': 'Cumberland Council', 'types': ['administrative_area_level_2', 'political']}, {'long_name': 'New South Wales', 'short_name': 'NSW', 'types': ['administrative_area_level_1', 'political']}, {'long_name': 'Australia', 'short_name': 'AU', 'types': ['country', 'political']}, {'long_name': '2142', 'short_name': '2142', 'types': ['postal_code']}], 'formatted_address': 'Lena St, Granville NSW 2142, Australia', 'geometry': {'location': {'lat': -33.8349148, 'lng': 151.0049816}, 'location_type': 'GEOMETRIC_CENTER', 'viewport': {'northeast': {'lat': -33.8335658197085, 'lng': 151.0063305802915}, 'southwest': {'lat': -33.8362637802915, 'lng': 151.0036326197085}}}, 'place_id': 'ChIJt4KEcSujEmsR239jYMJz_48', 'plus_code': {'compound_code': '5283+2X Granville, New South Wales, Australia', 'global_code': '4RRH5283+2X'}, 'types': ['establishment', 'point_of_interest', 'primary_school', 'school']}], 'status': 'OK'}",151.0049816,y
2016,8546,Hoxton Park Public School,Hoxton Park,NSW,2171,Government,Primary,School Single Entity,Individual Reporting,Department of Education NSW,K-6,Major Cities,980,38,31,22,9,29,34.6,4,4.1,654,335,319,654,3,74,"Hoxton Park Public School, Hoxton Park, NSW, 2171","{'results': [{'address_components': [{'long_name': '99', 'short_name': '99', 'types': ['street_number']}, {'long_name': 'Pacific Palms Circuit', 'short_name': 'Pacific Palms Cct', 'types': ['route']}, {'long_name': 'Hoxton Park', 'short_name': 'Hoxton Park', 'types': ['locality', 'political']}, {'long_name': 'City of Liverpool', 'short_name': 'City of Liverpool', 'types': ['administrative_area_level_2', 'political']}, {'long_name': 'New South Wales', 'short_name': 'NSW', 'types': ['administrative_area_level_1', 'political']}, {'long_name': 'Australia', 'short_name': 'AU', 'types': ['country', 'political']}, {'long_name': '2171', 'short_name': '2171', 'types': ['postal_code']}], 'formatted_address': '99 Pacific Palms Cct, Hoxton Park NSW 2171, Australia', 'geometry': {'location': {'lat': -33.9317044, 'lng': 150.848897}, 'location_type': 'ROOFTOP', 'viewport': {'northeast': {'lat': -33.9303554197085, 'lng': 150.8502459802915}, 'southwest': {'lat': -33.9330533802915, 'lng': 150.8475480197085}}}, 'place_id': 'ChIJcfVUqX2TEmsR2DtSG1NrnPY', 'plus_code': {'compound_code': '3R9X+8H Hoxton Park, New South Wales, Australia', 'global_code': '4RRG3R9X+8H'}, 'types': ['establishment', 'point_of_interest', 'primary_school', 'school']}], 'status': 'OK'}",150.848897,y
2016,8154,Smithfield Public School,Smithfield,NSW,2164,Government,Primary,School Single Entity,Individual Reporting,Department of Education NSW,"U, P-6",Major Cities,968,44,28,18,9,34,39.1,11,12.2,517,254,263,517,1,80,"Smithfield Public School, Smithfield, NSW, 2164","{'results': [{'address_components': [{'long_name': '8', 'short_name': '8', 'types': ['street_number']}, {'long_name': ""O'Connell Street"", 'short_name': ""O'Connell St"", 'types': ['route']}, {'long_name': 'Smithfield', 'short_name': 'Smithfield', 'types': ['locality', 'political']}, {'long_name': 'Fairfield City Council', 'short_name': 'Fairfield', 'types': ['administrative_area_level_2', 'political']}, {'long_name': 'New South Wales', 'short_name': 'NSW', 'types': ['administrative_area_level_1', 'political']}, {'long_name': 'Australia', 'short_name': 'AU', 'types': ['country', 'political']}, {'long_name': '2164', 'short_name': '2164', 'types': ['postal_code']}], 'formatted_address': ""8 O'Connell St, Smithfield NSW 2164, Australia"", 'geometry': {'location': {'lat': -33.853898, 'lng': 150.9348033}, 'location_type': 'ROOFTOP', 'viewport': {'northeast': {'lat': -33.8525490197085, 'lng': 150.9361522802915}, 'southwest': {'lat': -33.8552469802915, 'lng': 150.9334543197085}}}, 'place_id': 'ChIJbZe0yx-XEmsRHCk_l1GelvA', 'plus_code': {'compound_code': '4WWM+CW Smithfield, New South Wales, Australia', 'global_code': '4RRG4WWM+CW'}, 'types': ['establishment', 'point_of_interest', 'school']}], 'status': 'OK'}",150.9348033,y
2016,8149,Chester Hill Public School,Chester Hill,NSW,2162,Government,Primary,School Single Entity,Individual Reporting,Department of Education NSW,K-6,Major Cities,938,56,26,14,4,37,39.2,3,4.3,657,324,333,657,1,88,"Chester Hill Public School, Chester Hill, NSW, 2162","{'results': [{'address_components': [{'long_name': 'Proctor Parade', 'short_name': 'Proctor Parade', 'types': ['route']}, {'long_name': 'Chester Hill', 'short_name': 'Chester Hill', 'types': ['locality', 'political']}, {'long_name': 'Bankstown City Council', 'short_name': 'Bankstown', 'types': ['administrative_area_level_2', 'political']}, {'long_name': 'New South Wales', 'short_name': 'NSW', 'types': ['administrative_area_level_1', 'political']}, {'long_name': 'Australia', 'short_name': 'AU', 'types': ['country', 'political']}, {'long_name': '2162', 'short_name': '2162', 'types': ['postal_code']}], 'formatted_address': 'Proctor Parade, Chester Hill NSW 2162, Australia', 'geometry': {'location': {'lat': -33.8865362, 'lng': 151.0017083}, 'location_type': 'GEOMETRIC_CENTER', 'viewport': {'northeast': {'lat': -33.88518721970851, 'lng': 151.0030572802915}, 'southwest': {'lat': -33.88788518029151, 'lng': 151.0003593197085}}}, 'place_id': 'ChIJcUbwulK8EmsRPJyojj7a-2U', 'plus_code': {'compound_code': '4272+9M Chester Hill, New South Wales, Australia', 'global_code': '4RRH4272+9M'}, 'types': ['establishment', 'point_of_interest', 'primary_school', 'school']}], 'status': 'OK'}",151.0017083,y
2016,8573,Yagoona Public School,Yagoona,NSW,2199,Government,Primary,School Single Entity,Individual Reporting,Department of Education NSW,"U, K-6",Major Cities,981,41,30,20,9,38,39.7,9,9,530,243,287,530,0,96,"Yagoona Public School, Yagoona, NSW, 2199","{'results': [{'address_components': [{'long_name': '425', 'short_name': '425', 'types': ['street_number']}, {'long_name': 'Hume Highway', 'short_name': 'Hume Hwy', 'types': ['route']}, {'long_name': 'Yagoona', 'short_name': 'Yagoona', 'types': ['locality', 'political']}, {'long_name': 'Bankstown City Council', 'short_name': 'Bankstown', 'types': ['administrative_area_level_2', 'political']}, {'long_name': 'New South Wales', 'short_name': 'NSW', 'types': ['administrative_area_level_1', 'political']}, {'long_name': 'Australia', 'short_name': 'AU', 'types': ['country', 'political']}, {'long_name': '2199', 'short_name': '2199', 'types': ['postal_code']}], 'formatted_address': '425 Hume Hwy, Yagoona NSW 2199, Australia', 'geometry': {'location': {'lat': -33.9080313, 'lng': 151.025801}, 'location_type': 'ROOFTOP', 'viewport': {'northeast': {'lat': -33.90668231970849, 'lng': 151.0271499802915}, 'southwest': {'lat': -33.90938028029149, 'lng': 151.0244520197085}}}, 'place_id': 'ChIJoa8CNBS8EmsRttTxCR1brlw', 'plus_code': {'compound_code': '32RG+Q8 Yagoona, New South Wales, Australia', 'global_code': '4RRH32RG+Q8'}, 'types': ['establishment', 'point_of_interest', 'primary_school', 'school']}], 'status': 'OK'}",151.025801,y
2016,8151,Villawood East Public School,Villawood,NSW,2163,Government,Primary,School Single Entity,Individual Reporting,Department of Education NSW,"U, P-6",Major Cities,880,77,15,7,2,20,20.7,5,5.7,268,136,132,268,6,79,"Villawood East Public School, Villawood, NSW, 2163","{'results': [{'address_components': [{'long_name': 'Gundaroo Street', 'short_name': 'Gundaroo St', 'types': ['route']}, {'long_name': 'Villawood', 'short_name': 'Villawood', 'types': ['locality', 'political']}, {'long_name': 'Bankstown City Council', 'short_name': 'Bankstown', 'types': ['administrative_area_level_2', 'political']}, {'long_name': 'New South Wales', 'short_name': 'NSW', 'types': ['administrative_area_level_1', 'political']}, {'long_name': 'Australia', 'short_name': 'AU', 'types': ['country', 'political']}, {'long_name': '2163', 'short_name': '2163', 'types': ['postal_code']}], 'formatted_address': 'Lowana Street &, Gundaroo St, Villawood NSW 2163, Australia', 'geometry': {'location': {'lat': -33.889705, 'lng': 150.9856206}, 'location_type': 'GEOMETRIC_CENTER', 'viewport': {'northeast': {'lat': -33.8883560197085, 'lng': 150.9869695802915}, 'southwest': {'lat': -33.8910539802915, 'lng': 150.9842716197086}}}, 'place_id': 'ChIJHyOtNri9EmsRWXGc1KUqio4', 'plus_code': {'compound_code': '4X6P+46 Villawood, New South Wales, Australia', 'global_code': '4RRG4X6P+46'}, 'types': ['establishment', 'point_of_interest', 'primary_school', 'school']}], 'status': 'OK'}",150.9856206,y
2016,8555,Banksia Road Public School,Greenacre,NSW,2190,Government,Primary,School Single Entity,Individual Reporting,Department of Education NSW,K-6,Major Cities,951,51,27,17,5,27,30.2,4,3.4,482,203,279,482,1,94,"Banksia Road Public School, Greenacre, NSW, 2190","{'results': [{'address_components': [{'long_name': '65', 'short_name': '65', 'types': ['street_number']}, {'long_name': 'Banksia Road', 'short_name': 'Banksia Rd', 'types': ['route']}, {'long_name': 'Greenacre', 'short_name': 'Greenacre', 'types': ['locality', 'political']}, {'long_name': 'Bankstown City Council', 'short_name': 'Bankstown', 'types': ['administrative_area_level_2', 'political']}, {'long_name': 'New South Wales', 'short_name': 'NSW', 'types': ['administrative_area_level_1', 'political']}, {'long_name': 'Australia', 'short_name': 'AU', 'types': ['country', 'political']}, {'long_name': '2190', 'short_name': '2190', 'types': ['postal_code']}], 'formatted_address': '65 Banksia Rd, Greenacre NSW 2190, Australia', 'geometry': {'location': {'lat': -33.9069566, 'lng': 151.0502286}, 'location_type': 'ROOFTOP', 'viewport': {'northeast': {'lat': -33.9056076197085, 'lng': 151.0515775802915}, 'southwest': {'lat': -33.9083055802915, 'lng': 151.0488796197085}}}, 'place_id': 'ChIJXRu08oq7EmsRGJbZk_2b3N0', 'plus_code': {'compound_code': '33V2+63 Greenacre, New South Wales, Australia', 'global_code': '4RRH33V2+63'}, 'types': ['establishment', 'point_of_interest', 'primary_school', 'school']}], 'status': 'OK'}",151.0502286,y
2016,8540,Marsden Road Public School,Liverpool,NSW,2170,Government,Primary,School Single Entity,Individual Reporting,Department of Education NSW,K-6,Major Cities,963,44,29,19,7,36,37.3,5,4.3,671,351,320,671,2,87,"Marsden Road Public School, Liverpool, NSW, 2170","{'results': [{'address_components': [{'long_name': 'Marsden Road', 'short_name': 'Marsden Rd', 'types': ['route']}, {'long_name': 'Liverpool', 'short_name': 'Liverpool', 'types': ['locality', 'political']}, {'long_name': 'City of Liverpool', 'short_name': 'City of Liverpool', 'types': ['administrative_area_level_2', 'political']}, {'long_name': 'New South Wales', 'short_name': 'NSW', 'types': ['administrative_area_level_1', 'political']}, {'long_name': 'Australia', 'short_name': 'AU', 'types': ['country', 'political']}, {'long_name': '2170', 'short_name': '2170', 'types': ['postal_code']}], 'formatted_address': 'Marsden Rd, Liverpool NSW 2170, Australia', 'geometry': {'location': {'lat': -33.9166948, 'lng': 150.9134147}, 'location_type': 'GEOMETRIC_CENTER', 'viewport': {'northeast': {'lat': -33.91534581970851, 'lng': 150.9147636802915}, 'southwest': {'lat': -33.91804378029151, 'lng': 150.9120657197085}}}, 'place_id': 'ChIJ_fXP-8mVEmsRgyvau3fJcww', 'plus_code': {'compound_code': '3WM7+89 Liverpool, New South Wales, Australia', 'global_code': '4RRG3WM7+89'}, 'types': ['establishment', 'point_of_interest', 'primary_school', 'school']}], 'status': 'OK'}",150.9134147,y
2016,8529,Heckenberg Public School,Heckenberg,NSW,2168,Government,Primary,School Single Entity,Individual Reporting,Department of Education NSW,K-6,Major Cities,860,78,16,5,0,13,13.6,4,2.4,213,107,106,213,12,65,"Heckenberg Public School, Heckenberg, NSW, 2168","{'results': [{'address_components': [{'long_name': '1', 'short_name': '1', 'types': ['street_number']}, {'long_name': 'Jindabyne Street', 'short_name': 'Jindabyne St', 'types': ['route']}, {'long_name': 'Heckenberg', 'short_name': 'Heckenberg', 'types': ['locality', 'political']}, {'long_name': 'City of Liverpool', 'short_name': 'City of Liverpool', 'types': ['administrative_area_level_2', 'political']}, {'long_name': 'New South Wales', 'short_name': 'NSW', 'types': ['administrative_area_level_1', 'political']}, {'long_name': 'Australia', 'short_name': 'AU', 'types': ['country', 'political']}, {'long_name': '2168', 'short_name': '2168', 'types': ['postal_code']}], 'formatted_address': '1 Jindabyne St, Heckenberg NSW 2168, Australia', 'geometry': {'location': {'lat': -33.9088833, 'lng': 150.8902056}, 'location_type': 'ROOFTOP', 'viewport': {'northeast': {'lat': -33.9075343197085, 'lng': 150.8915545802915}, 'southwest': {'lat': -33.9102322802915, 'lng': 150.8888566197085}}}, 'place_id': 'ChIJG3uosziUEmsR_e_VjzY9l7I', 'plus_code': {'compound_code': '3VRR+C3 Heckenberg, New South Wales, Australia', 'global_code': '4RRG3VRR+C3'}, 'types': ['establishment', 'point_of_interest', 'primary_school', 'school']}], 'status': 'OK'}",150.8902056,y
2016,8552,Prairievale Public School,Bossley Park,NSW,2176,Government,Primary,School Single Entity,Individual Reporting,Department of Education NSW,"U, K-6",Major Cities,921,62,21,14,4,28,32,4,6.2,463,221,242,463,2,90,"Prairievale Public School, Bossley Park, NSW, 2176","{'results': [{'address_components': [{'long_name': '211', 'short_name': '211', 'types': ['street_number']}, {'long_name': 'Prairie Vale Road', 'short_name': 'Prairie Vale Rd', 'types': ['route']}, {'long_name': 'Bossley Park', 'short_name': 'Bossley Park', 'types': ['locality', 'political']}, {'long_name': 'Fairfield City Council', 'short_name': 'Fairfield', 'types': ['administrative_area_level_2', 'political']}, {'long_name': 'New South Wales', 'short_name': 'NSW', 'types': ['administrative_area_level_1', 'political']}, {'long_name': 'Australia', 'short_name': 'AU', 'types': ['country', 'political']}, {'long_name': '2176', 'short_name': '2176', 'types': ['postal_code']}], 'formatted_address': '211 Prairie Vale Rd, Bossley Park NSW 2176, Australia', 'geometry': {'location': {'lat': -33.8665662, 'lng': 150.8910681}, 'location_type': 'ROOFTOP', 'viewport': {'northeast': {'lat': -33.86521721970851, 'lng': 150.8924170802915}, 'southwest': {'lat': -33.8679151802915, 'lng': 150.8897191197085}}}, 'place_id': 'ChIJcU1KZOuWEmsR4e1Ad-qYRxM', 'plus_code': {'compound_code': '4VMR+9C Bossley Park, New South Wales, Australia', 'global_code': '4RRG4VMR+9C'}, 'types': ['establishment', 'point_of_interest', 'primary_school', 'school']}], 'status': 'OK'}",150.8910681,y
2016,8575,Bankstown Public School,Bankstown,NSW,2200,Government,Primary,School Single Entity,Individual Reporting,Department of Education NSW,"U, K-6",Major Cities,951,53,24,16,7,55,58.7,7,6.9,896,422,474,896,1,97,"Bankstown Public School, Bankstown, NSW, 2200","{'results': [{'address_components': [{'long_name': '61', 'short_name': '61', 'types': ['street_number']}, {'long_name': 'Restwell Street', 'short_name': 'Restwell St', 'types': ['route']}, {'long_name': 'Bankstown', 'short_name': 'Bankstown', 'types': ['locality', 'political']}, {'long_name': 'Bankstown City Council', 'short_name': 'Bankstown', 'types': ['administrative_area_level_2', 'political']}, {'long_name': 'New South Wales', 'short_name': 'NSW', 'types': ['administrative_area_level_1', 'political']}, {'long_name': 'Australia', 'short_name': 'AU', 'types': ['country', 'political']}, {'long_name': '2200', 'short_name': '2200', 'types': ['postal_code']}], 'formatted_address': '61 Restwell St, Bankstown NSW 2200, Australia', 'geometry': {'location': {'lat': -33.921057, 'lng': 151.0335415}, 'location_type': 'ROOFTOP', 'viewport': {'northeast': {'lat': -33.91970801970849, 'lng': 151.0348904802915}, 'southwest': {'lat': -33.92240598029149, 'lng': 151.0321925197085}}}, 'place_id': 'ChIJdfHEVxu8EmsRtZ5uI1vfst0', 'plus_code': {'compound_code': '32HM+HC Bankstown, New South Wales, Australia', 'global_code': '4RRH32HM+HC'}, 'types': ['establishment', 'point_of_interest', 'primary_school', 'school']}], 'status': 'OK'}",151.0335415,y
2016,10796,Colyton Public School,Mount Druitt,NSW,2770,Government,Primary,School Single Entity,Individual Reporting,Department of Education NSW,K-6,Major Cities,1005,32,24,26,18,32,39.1,5,4.5,728,328,400,728,2,67,"Colyton Public School, Mount Druitt, NSW, 2770","{'results': [{'address_components': [{'long_name': '43-81', 'short_name': '43-81', 'types': ['street_number']}, {'long_name': 'Nelson Street', 'short_name': 'Nelson St', 'types': ['route']}, {'long_name': 'Mount Druitt', 'short_name': 'Mount Druitt', 'types': ['locality', 'political']}, {'long_name': 'City of Blacktown', 'short_name': 'Blacktown', 'types': ['administrative_area_level_2', 'political']}, {'long_name': 'New South Wales', 'short_name': 'NSW', 'types': ['administrative_area_level_1', 'political']}, {'long_name': 'Australia', 'short_name': 'AU', 'types': ['country', 'political']}, {'long_name': '2770', 'short_name': '2770', 'types': ['postal_code']}], 'formatted_address': '43-81 Nelson St, Mount Druitt NSW 2770, Australia', 'geometry': {'location': {'lat': -33.7770961, 'lng': 150.813135}, 'location_type': 'ROOFTOP', 'viewport': {'northeast': {'lat': -33.77574711970851, 'lng': 150.8144839802915}, 'southwest': {'lat': -33.7784450802915, 'lng': 150.8117860197085}}}, 'place_id': 'ChIJ29eCNYiaEmsRfp23xhDzbVo', 'plus_code': {'compound_code': '6RF7+57 Mount Druitt, New South Wales, Australia', 'global_code': '4RRG6RF7+57'}, 'types': ['establishment', 'point_of_interest', 'primary_school', 'school']}], 'status': 'OK'}",150.813135,y
2016,7746,Rydalmere Public School,Rydalmere,NSW,2116,Government,Primary,School Single Entity,Individual Reporting,Department of Education NSW,P-6,Major Cities,979,38,29,25,9,5,8,2,3,114,54,60,114,3,52,"Rydalmere Public School, Rydalmere, NSW, 2116","{'results': [{'address_components': [{'long_name': '397', 'short_name': '397', 'types': ['street_number']}, {'long_name': 'Victoria Road', 'short_name': 'Victoria Rd', 'types': ['route']}, {'long_name': 'Rydalmere', 'short_name': 'Rydalmere', 'types': ['locality', 'political']}, {'long_name': 'City of Parramatta Council', 'short_name': 'City of Parramatta Council', 'types': ['administrative_area_level_2', 'political']}, {'long_name': 'New South Wales', 'short_name': 'NSW', 'types': ['administrative_area_level_1', 'political']}, {'long_name': 'Australia', 'short_name': 'AU', 'types': ['country', 'political']}, {'long_name': '2116', 'short_name': '2116', 'types': ['postal_code']}], 'formatted_address': '397 Victoria Rd, Rydalmere NSW 2116, Australia', 'geometry': {'location': {'lat': -33.8143238, 'lng': 151.0447367}, 'location_type': 'ROOFTOP', 'viewport': {'northeast': {'lat': -33.8129748197085, 'lng': 151.0460856802915}, 'southwest': {'lat': -33.8156727802915, 'lng': 151.0433877197085}}}, 'place_id': 'ChIJQVYUBH2jEmsRERfxEwqPADA', 'plus_code': {'compound_code': '52PV+7V Rydalmere, New South Wales, Australia', 'global_code': '4RRH52PV+7V'}, 'types': ['establishment', 'point_of_interest', 'primary_school', 'school']}], 'status': 'OK'}",151.0447367,y
2016,7814,Westmead Public School,Westmead,NSW,2145,Government,Primary,School Single Entity,Individual Reporting,Department of Education NSW,K-6,Major Cities,1139,3,7,25,65,60,67.3,8,6.9,1271,598,673,1271,0,97,"Westmead Public School, Westmead, NSW, 2145","{'results': [{'address_components': [{'long_name': 'Hawkesbury Road', 'short_name': 'Hawkesbury Rd', 'types': ['route']}, {'long_name': 'Westmead', 'short_name': 'Westmead', 'types': ['locality', 'political']}, {'long_name': 'Cumberland Council', 'short_name': 'Cumberland Council', 'types': ['administrative_area_level_2', 'political']}, {'long_name': 'New South Wales', 'short_name': 'NSW', 'types': ['administrative_area_level_1', 'political']}, {'long_name': 'Australia', 'short_name': 'AU', 'types': ['country', 'political']}, {'long_name': '2145', 'short_name': '2145', 'types': ['postal_code']}], 'formatted_address': 'Hawkesbury Rd, Westmead NSW 2145, Australia', 'geometry': {'location': {'lat': -33.8109373, 'lng': 150.9864665}, 'location_type': 'GEOMETRIC_CENTER', 'viewport': {'northeast': {'lat': -33.8095883197085, 'lng': 150.9878154802915}, 'southwest': {'lat': -33.8122862802915, 'lng': 150.9851175197085}}}, 'place_id': 'ChIJjXpLROiiEmsRBmsvND9EWCg', 'plus_code': {'compound_code': '5XQP+JH Westmead, New South Wales, Australia', 'global_code': '4RRG5XQP+JH'}, 'types': ['establishment', 'point_of_interest', 'primary_school', 'school']}], 'status': 'OK'}",150.9864665,y
2016,7821,Bert Oldfield Public School,Seven Hills,NSW,2147,Government,Primary,School Single Entity,Individual Reporting,Department of Education NSW,K-6,Major Cities,1003,31,24,27,18,13,15.2,4,2.6,269,137,132,269,2,70,"Bert Oldfield Public School, Seven Hills, NSW, 2147","{'results': [{'address_components': [{'long_name': 'Oldfield Road', 'short_name': 'Oldfield Rd', 'types': ['route']}, {'long_name': 'Seven Hills', 'short_name': 'Seven Hills', 'types': ['locality', 'political']}, {'long_name': 'City of Blacktown', 'short_name': 'Blacktown', 'types': ['administrative_area_level_2', 'political']}, {'long_name': 'New South Wales', 'short_name': 'NSW', 'types': ['administrative_area_level_1', 'political']}, {'long_name': 'Australia', 'short_name': 'AU', 'types': ['country', 'political']}, {'long_name': '2147', 'short_name': '2147', 'types': ['postal_code']}], 'formatted_address': 'Oldfield Rd, Seven Hills NSW 2147, Australia', 'geometry': {'location': {'lat': -33.7775178, 'lng': 150.9246166}, 'location_type': 'GEOMETRIC_CENTER', 'viewport': {'northeast': {'lat': -33.7761688197085, 'lng': 150.9259655802915}, 'southwest': {'lat': -33.77886678029149, 'lng': 150.9232676197086}}}, 'place_id': 'ChIJm1WpOF6ZEmsR58F3T6MX2eE', 'plus_code': {'compound_code': '6WCF+XR Seven Hills, New South Wales, Australia', 'global_code': '4RRG6WCF+XR'}, 'types': ['establishment', 'point_of_interest', 'primary_school', 'school']}], 'status': 'OK'}",150.9246166,y
2016,7812,Toongabbie East Public School,Wentworthville,NSW,2145,Government,Primary,School Single Entity,Individual Reporting,Department of Education NSW,K-6,Major Cities,891,66,21,9,5,8,9.1,1,1.4,78,39,39,78,13,53,"Toongabbie East Public School, Wentworthville, NSW, 2145","{'results': [{'address_components': [{'long_name': 'Harris Road', 'short_name': 'Harris Rd', 'types': ['route']}, {'long_name': 'Wentworthville', 'short_name': 'Wentworthville', 'types': ['locality', 'political']}, {'long_name': 'City of Parramatta Council', 'short_name': 'City of Parramatta Council', 'types': ['administrative_area_level_2', 'political']}, {'long_name': 'New South Wales', 'short_name': 'NSW', 'types': ['administrative_area_level_1', 'political']}, {'long_name': 'Australia', 'short_name': 'AU', 'types': ['country', 'political']}, {'long_name': '2145', 'short_name': '2145', 'types': ['postal_code']}], 'formatted_address': 'Harris Rd, Wentworthville NSW 2145, Australia', 'geometry': {'location': {'lat': -33.7970928, 'lng': 150.9793266}, 'location_type': 'GEOMETRIC_CENTER', 'viewport': {'northeast': {'lat': -33.79574381970851, 'lng': 150.9806755802915}, 'southwest': {'lat': -33.7984417802915, 'lng': 150.9779776197085}}}, 'place_id': 'ChIJqYUS4fKiEmsR93QEaVaR5fY', 'plus_code': {'compound_code': '6X3H+5P Constitution Hill, New South Wales, Australia', 'global_code': '4RRG6X3H+5P'}, 'types': ['establishment', 'point_of_interest', 'primary_school', 'school']}], 'status': 'OK'}",150.9793266,y
2016,9955,Warrawong Public School,Warrawong,NSW,2502,Government,Primary,School Single Entity,Individual Reporting,Department of Education NSW,"U, K-6",Major Cities,864,74,18,7,1,18,18.4,6,5.5,269,131,138,269,16,39,"Warrawong Public School, Warrawong, NSW, 2502","{'results': [{'address_components': [{'long_name': '127', 'short_name': '127', 'types': ['street_number']}, {'long_name': 'Cowper Street', 'short_name': 'Cowper St', 'types': ['route']}, {'long_name': 'Warrawong', 'short_name': 'Warrawong', 'types': ['locality', 'political']}, {'long_name': 'Wollongong City Council', 'short_name': 'Wollongong', 'types': ['administrative_area_level_2', 'political']}, {'long_name': 'New South Wales', 'short_name': 'NSW', 'types': ['administrative_area_level_1', 'political']}, {'long_name': 'Australia', 'short_name': 'AU', 'types': ['country', 'political']}, {'long_name': '2502', 'short_name': '2502', 'types': ['postal_code']}], 'formatted_address': '127 Cowper St, Warrawong NSW 2502, Australia', 'geometry': {'location': {'lat': -34.4816195, 'lng': 150.8777014}, 'location_type': 'ROOFTOP', 'viewport': {'northeast': {'lat': -34.4802705197085, 'lng': 150.8790503802915}, 'southwest': {'lat': -34.4829684802915, 'lng': 150.8763524197085}}}, 'place_id': 'ChIJJUMq_zwXE2sRAVp1HU5JY6o', 'plus_code': {'compound_code': 'GV9H+93 Wollongong, New South Wales, Australia', 'global_code': '4RQGGV9H+93'}, 'types': ['establishment', 'point_of_interest', 'primary_school', 'school']}, {'address_components': [{'long_name': '127', 'short_name': '127', 'types': ['street_number']}, {'long_name': 'Cowper Street', 'short_name': 'Cowper St', 'types': ['route']}, {'long_name': 'Warrawong', 'short_name': 'Warrawong', 'types': ['locality', 'political']}, {'long_name': 'Wollongong City Council', 'short_name': 'Wollongong', 'types': ['administrative_area_level_2', 'political']}, {'long_name': 'New South Wales', 'short_name': 'NSW', 'types': ['administrative_area_level_1', 'political']}, {'long_name': 'Australia', 'short_name': 'AU', 'types': ['country', 'political']}, {'long_name': '2502', 'short_name': '2502', 'types': ['postal_code']}], 'formatted_address': '127 Cowper St, Warrawong NSW 2502, Australia', 'geometry': {'location': {'lat': -34.4804711, 'lng': 150.8754878}, 'location_type': 'ROOFTOP', 'viewport': {'northeast': {'lat': -34.4791221197085, 'lng': 150.8768367802915}, 'southwest': {'lat': -34.48182008029149, 'lng': 150.8741388197085}}}, 'place_id': 'ChIJJUMq_zwXE2sRSyV01yHsub4', 'plus_code': {'compound_code': 'GV9G+R5 Wollongong, New South Wales, Australia', 'global_code': '4RQGGV9G+R5'}, 'types': ['establishment', 'point_of_interest', 'school', 'secondary_school']}], 'status': 'OK'}",150.8777014,y
2016,9949,Wollongong West Public School,Wollongong,NSW,2500,Government,Primary,School Single Entity,Individual Reporting,Department of Education NSW,K-6,Major Cities,976,38,25,21,17,13,15.7,4,2.3,238,118,120,238,10,43,"Wollongong West Public School, Wollongong, NSW, 2500","{'results': [{'address_components': [{'long_name': '442', 'short_name': '442', 'types': ['street_number']}, {'long_name': 'Crown Street', 'short_name': 'Crown St', 'types': ['route']}, {'long_name': 'West Wollongong', 'short_name': 'West Wollongong', 'types': ['locality', 'political']}, {'long_name': 'Wollongong City Council', 'short_name': 'Wollongong', 'types': ['administrative_area_level_2', 'political']}, {'long_name': 'New South Wales', 'short_name': 'NSW', 'types': ['administrative_area_level_1', 'political']}, {'long_name': 'Australia', 'short_name': 'AU', 'types': ['country', 'political']}, {'long_name': '2500', 'short_name': '2500', 'types': ['postal_code']}], 'formatted_address': '442 Crown St, West Wollongong NSW 2500, Australia', 'geometry': {'location': {'lat': -34.4245047, 'lng': 150.8717171}, 'location_type': 'ROOFTOP', 'viewport': {'northeast': {'lat': -34.4231557197085, 'lng': 150.8730660802915}, 'southwest': {'lat': -34.4258536802915, 'lng': 150.8703681197085}}}, 'place_id': 'ChIJJaSPkKsZE2sRAVU5fpJfhQg', 'plus_code': {'compound_code': 'HVGC+5M Wollongong, New South Wales, Australia', 'global_code': '4RQGHVGC+5M'}, 'types': ['establishment', 'point_of_interest', 'primary_school', 'school']}], 'status': 'OK'}",150.8717171,y
2016,9948,Wollongong Public School,Wollongong,NSW,2500,Government,Primary,School Single Entity,Individual Reporting,Department of Education NSW,K-6,Major Cities,1074,14,18,26,42,19,24.3,7,3.3,453,197,256,453,2,56,"Wollongong Public School, Wollongong, NSW, 2500","{'results': [{'address_components': [{'long_name': '67A', 'short_name': '67A', 'types': ['street_number']}, {'long_name': 'Church Street', 'short_name': 'Church St', 'types': ['route']}, {'long_name': 'Wollongong', 'short_name': 'Wollongong', 'types': ['locality', 'political']}, {'long_name': 'Wollongong City Council', 'short_name': 'Wollongong', 'types': ['administrative_area_level_2', 'political']}, {'long_name': 'New South Wales', 'short_name': 'NSW', 'types': ['administrative_area_level_1', 'political']}, {'long_name': 'Australia', 'short_name': 'AU', 'types': ['country', 'political']}, {'long_name': '2500', 'short_name': '2500', 'types': ['postal_code']}], 'formatted_address': '67A Church St, Wollongong NSW 2500, Australia', 'geometry': {'location': {'lat': -34.4223669, 'lng': 150.896728}, 'location_type': 'ROOFTOP', 'viewport': {'northeast': {'lat': -34.4210179197085, 'lng': 150.8980769802915}, 'southwest': {'lat': -34.4237158802915, 'lng': 150.8953790197085}}}, 'place_id': 'ChIJ8UrU4qUZE2sRk2icyJDUqFw', 'plus_code': {'compound_code': 'HVHW+3M Wollongong, New South Wales, Australia', 'global_code': '4RQGHVHW+3M'}, 'types': ['establishment', 'point_of_interest', 'primary_school', 'school']}], 'status': 'OK'}",150.896728,y
2016,1554,Sacred Heart Catholic Primary School,Villawood,NSW,2163,Catholic,Primary,School Single Entity,Individual Reporting,Catholic Schools NSW,K-6,Major Cities,1032,22,28,27,23,18,11.8,8,4.6,161,84,77,161,1,89,"Sacred Heart Catholic Primary School, Villawood, NSW, 2163","{'results': [{'address_components': [{'long_name': '122', 'short_name': '122', 'types': ['street_number']}, {'long_name': 'Carawatha Street', 'short_name': 'Carawatha St', 'types': ['route']}, {'long_name': 'Villawood', 'short_name': 'Villawood', 'types': ['locality', 'political']}, {'long_name': 'Bankstown City Council', 'short_name': 'Bankstown', 'types': ['administrative_area_level_2', 'political']}, {'long_name': 'New South Wales', 'short_name': 'NSW', 'types': ['administrative_area_level_1', 'political']}, {'long_name': 'Australia', 'short_name': 'AU', 'types': ['country', 'political']}, {'long_name': '2163', 'short_name': '2163', 'types': ['postal_code']}], 'formatted_address': '122 Carawatha St, Villawood NSW 2163, Australia', 'geometry': {'location': {'lat': -33.8885517, 'lng': 150.975473}, 'location_type': 'ROOFTOP', 'viewport': {'northeast': {'lat': -33.8872027197085, 'lng': 150.9768219802915}, 'southwest': {'lat': -33.8899006802915, 'lng': 150.9741240197085}}}, 'place_id': 'ChIJpQDFeb-9EmsRYBm7DC9saU4', 'plus_code': {'compound_code': '4X6G+H5 Villawood, New South Wales, Australia', 'global_code': '4RRG4X6G+H5'}, 'types': ['establishment', 'point_of_interest', 'school']}], 'status': 'OK'}",150.975473,y
2016,9245,Dandenong Primary School,Dandenong,VIC,3175,Government,Primary,School Single Entity,Individual Reporting,Department of Education and Training Victoria,Prep-6,Major Cities,942,52,26,18,3,30,27.5,17,11.5,383,191,192,383,1,79,"Dandenong Primary School, Dandenong, VIC, 3175","{'results': [{'address_components': [{'long_name': '174-182', 'short_name': '174-182', 'types': ['street_number']}, {'long_name': 'Foster Street', 'short_name': 'Foster St', 'types': ['route']}, {'long_name': 'Dandenong', 'short_name': 'Dandenong', 'types': ['locality', 'political']}, {'long_name': 'Greater Dandenong City', 'short_name': 'Greater Dandenong', 'types': ['administrative_area_level_2', 'political']}, {'long_name': 'Victoria', 'short_name': 'VIC', 'types': ['administrative_area_level_1', 'political']}, {'long_name': 'Australia', 'short_name': 'AU', 'types': ['country', 'political']}, {'long_name': '3175', 'short_name': '3175', 'types': ['postal_code']}], 'formatted_address': '174-182 Foster St, Dandenong VIC 3175, Australia', 'geometry': {'location': {'lat': -37.9877809, 'lng': 145.2197596}, 'location_type': 'ROOFTOP', 'viewport': {'northeast': {'lat': -37.9864319197085, 'lng': 145.2211085802915}, 'southwest': {'lat': -37.98912988029149, 'lng': 145.2184106197085}}}, 'place_id': 'ChIJI-CJoAYU1moRG-auA7awzcE', 'plus_code': {'compound_code': '2669+VW Dandenong, Victoria, Australia', 'global_code': '4RJ72669+VW'}, 'types': ['establishment', 'point_of_interest', 'primary_school', 'school']}, {'address_components': [{'long_name': '52', 'short_name': '52', 'types': ['street_number']}, {'long_name': 'Kirkham Road', 'short_name': 'Kirkham Rd', 'types': ['route']}, {'long_name': 'Dandenong', 'short_name': 'Dandenong', 'types': ['locality', 'political']}, {'long_name': 'Greater Dandenong City', 'short_name': 'Greater Dandenong', 'types': ['administrative_area_level_2', 'political']}, {'long_name': 'Victoria', 'short_name': 'VIC', 'types': ['administrative_area_level_1', 'political']}, {'long_name': 'Australia', 'short_name': 'AU', 'types': ['country', 'political']}, {'long_name': '3175', 'short_name': '3175', 'types': ['postal_code']}], 'formatted_address': '52 Kirkham Rd, Dandenong VIC 3175, Australia', 'geometry': {'location': {'lat': -37.9984834, 'lng': 145.2121714}, 'location_type': 'ROOFTOP', 'viewport': {'northeast': {'lat': -37.9971344197085, 'lng': 145.2135203802915}, 'southwest': {'lat': -37.9998323802915, 'lng': 145.2108224197085}}}, 'place_id': 'ChIJD5wcLfAT1moRH8ijzqQHh_I', 'plus_code': {'compound_code': '2626+JV Dandenong, Victoria, Australia', 'global_code': '4RJ72626+JV'}, 'types': ['establishment', 'point_of_interest', 'primary_school', 'school']}], 'status': 'OK'}",145.2197596,y
2016,7574,St Albans Primary School,St Albans,VIC,3021,Government,Primary,School Single Entity,Individual Reporting,Department of Education and Training Victoria,Prep-6,Major Cities,950,48,26,20,6,26,24.4,40,29.7,299,151,148,299,2,86,"St Albans Primary School, St Albans, VIC, 3021","{'results': [{'address_components': [{'long_name': '39', 'short_name': '39', 'types': ['street_number']}, {'long_name': 'West Esplanade', 'short_name': 'W Esplanade', 'types': ['route']}, {'long_name': 'St Albans', 'short_name': 'St Albans', 'types': ['locality', 'political']}, {'long_name': 'Brimbank City', 'short_name': 'Brimbank', 'types': ['administrative_area_level_2', 'political']}, {'long_name': 'Victoria', 'short_name': 'VIC', 'types': ['administrative_area_level_1', 'political']}, {'long_name': 'Australia', 'short_name': 'AU', 'types': ['country', 'political']}, {'long_name': '3021', 'short_name': '3021', 'types': ['postal_code']}], 'formatted_address': '39 W Esplanade, St Albans VIC 3021, Australia', 'geometry': {'location': {'lat': -37.7387557, 'lng': 144.7959889}, 'location_type': 'ROOFTOP', 'viewport': {'northeast': {'lat': -37.7374067197085, 'lng': 144.7973378802915}, 'southwest': {'lat': -37.74010468029149, 'lng': 144.7946399197085}}}, 'place_id': 'ChIJ58aXz5xf1moR4qSPKIuIzao', 'plus_code': {'compound_code': '7Q6W+F9 St Albans, Victoria, Australia', 'global_code': '4RJ67Q6W+F9'}, 'types': ['establishment', 'point_of_interest', 'primary_school', 'school']}, {'address_components': [{'long_name': '65', 'short_name': '65', 'types': ['street_number']}, {'long_name': 'George Street', 'short_name': 'George St', 'types': ['route']}, {'long_name': 'St Albans', 'short_name': 'St Albans', 'types': ['locality', 'political']}, {'long_name': 'Brimbank City', 'short_name': 'Brimbank', 'types': ['administrative_area_level_2', 'political']}, {'long_name': 'Victoria', 'short_name': 'VIC', 'types': ['administrative_area_level_1', 'political']}, {'long_name': 'Australia', 'short_name': 'AU', 'types': ['country', 'political']}, {'long_name': '3021', 'short_name': '3021', 'types': ['postal_code']}], 'formatted_address': '65 George St, St Albans VIC 3021, Australia', 'geometry': {'location': {'lat': -37.7317166, 'lng': 144.8017033}, 'location_type': 'ROOFTOP', 'viewport': {'northeast': {'lat': -37.7303676197085, 'lng': 144.8030522802915}, 'southwest': {'lat': -37.73306558029149, 'lng': 144.8003543197085}}}, 'place_id': 'ChIJUQ4SOXJf1moRQ5g9_G4aZcw', 'plus_code': {'compound_code': '7R92+8M St Albans, Victoria, Australia', 'global_code': '4RJ67R92+8M'}, 'types': ['establishment', 'point_of_interest', 'primary_school', 'school']}], 'status': 'OK'}",144.7959889,y
2016,9247,Dandenong West Primary School,Dandenong,VIC,3175,Government,Primary,School Single Entity,Individual Reporting,Department of Education and Training Victoria,Prep-6,Major Cities,934,54,24,17,5,26,24.9,17,10.9,306,141,165,305.4,1,96,"Dandenong West Primary School, Dandenong, VIC, 3175","{'results': [{'address_components': [{'long_name': '32', 'short_name': '32', 'types': ['street_number']}, {'long_name': 'Birdwood Avenue', 'short_name': 'Birdwood Ave', 'types': ['route']}, {'long_name': 'Dandenong', 'short_name': 'Dandenong', 'types': ['locality', 'political']}, {'long_name': 'Greater Dandenong City', 'short_name': 'Greater Dandenong', 'types': ['administrative_area_level_2', 'political']}, {'long_name': 'Victoria', 'short_name': 'VIC', 'types': ['administrative_area_level_1', 'political']}, {'long_name': 'Australia', 'short_name': 'AU', 'types': ['country', 'political']}, {'long_name': '3175', 'short_name': '3175', 'types': ['postal_code']}], 'formatted_address': '32 Birdwood Ave, Dandenong VIC 3175, Australia', 'geometry': {'location': {'lat': -37.98087, 'lng': 145.200567}, 'location_type': 'ROOFTOP', 'viewport': {'northeast': {'lat': -37.9795210197085, 'lng': 145.2019159802915}, 'southwest': {'lat': -37.98221898029149, 'lng': 145.1992180197085}}}, 'place_id': 'ChIJ483Jm3MU1moRPK37os5eid0', 'plus_code': {'compound_code': '2692+M6 Dandenong, Victoria, Australia', 'global_code': '4RJ72692+M6'}, 'types': ['establishment', 'point_of_interest', 'primary_school', 'school']}], 'status': 'OK'}",145.200567,y
2016,14790,Gowrie Street Primary School Shepparton,Shepparton,VIC,3632,Government,Primary,School Head Campus,Rolled Reporting,Department of Education and Training Victoria,Prep-6,Inner Regional,834,77,16,5,2,22,21.6,15,12.7,287,137,150,287,32,19,"Gowrie Street Primary School Shepparton, Shepparton, VIC, 3632","{'results': [{'address_components': [{'long_name': '1-19', 'short_name': '1-19', 'types': ['street_number']}, {'long_name': 'Gowrie Street', 'short_name': 'Gowrie St', 'types': ['route']}, {'long_name': 'Shepparton', 'short_name': 'Shepparton', 'types': ['locality', 'political']}, {'long_name': 'Greater Shepparton City', 'short_name': 'Greater Shepparton', 'types': ['administrative_area_level_2', 'political']}, {'long_name': 'Victoria', 'short_name': 'VIC', 'types': ['administrative_area_level_1', 'political']}, {'long_name': 'Australia', 'short_name': 'AU', 'types': ['country', 'political']}, {'long_name': '3630', 'short_name': '3630', 'types': ['postal_code']}], 'formatted_address': '1-19 Gowrie St, Shepparton VIC 3630, Australia', 'geometry': {'location': {'lat': -36.3662262, 'lng': 145.3968322}, 'location_type': 'ROOFTOP', 'viewport': {'northeast': {'lat': -36.3648772197085, 'lng': 145.3981811802915}, 'southwest': {'lat': -36.3675751802915, 'lng': 145.3954832197085}}}, 'place_id': 'ChIJ3z9Cn3OE2GoR05_l_3hE060', 'plus_code': {'compound_code': 'J9MW+GP Shepparton, Victoria, Australia', 'global_code': '4RM7J9MW+GP'}, 'types': ['establishment', 'point_of_interest', 'primary_school', 'school']}], 'status': 'OK'}",145.3968322,y
2016,11471,St Georges Road Primary School Shepparton,Shepparton,VIC,3630,Government,Primary,School Head Campus,Rolled Reporting,Department of Education and Training Victoria,Prep-6,Inner Regional,844,80,15,4,1,44,39.1,19,15.3,412,198,214,412,17,48,"St Georges Road Primary School Shepparton, Shepparton, VIC, 3630","{'results': [{'address_components': [{'long_name': '120', 'short_name': '120', 'types': ['street_number']}, {'long_name': 'Saint Georges Road', 'short_name': 'St Georges Rd', 'types': ['route']}, {'long_name': 'Shepparton', 'short_name': 'Shepparton', 'types': ['locality', 'political']}, {'long_name': 'Greater Shepparton City', 'short_name': 'Greater Shepparton', 'types': ['administrative_area_level_2', 'political']}, {'long_name': 'Victoria', 'short_name': 'VIC', 'types': ['administrative_area_level_1', 'political']}, {'long_name': 'Australia', 'short_name': 'AU', 'types': ['country', 'political']}, {'long_name': '3630', 'short_name': '3630', 'types': ['postal_code']}], 'formatted_address': '120 St Georges Rd, Shepparton VIC 3630, Australia', 'geometry': {'location': {'lat': -36.3895616, 'lng': 145.4059346}, 'location_type': 'ROOFTOP', 'viewport': {'northeast': {'lat': -36.3882126197085, 'lng': 145.4072835802915}, 'southwest': {'lat': -36.3909105802915, 'lng': 145.4045856197085}}}, 'place_id': 'ChIJJwfvAP-D2GoRgvx8E245a3A', 'plus_code': {'compound_code': 'JC64+59 Shepparton - Mooroopna, Victoria, Australia', 'global_code': '4RM7JC64+59'}, 'types': ['establishment', 'point_of_interest', 'primary_school', 'school']}], 'status': 'OK'}",145.4059346,y
2016,9246,Dandenong South Primary School,Dandenong,VIC,3175,Government,Primary,School Single Entity,Individual Reporting,Department of Education and Training Victoria,Prep-6,Major Cities,904,69,20,9,2,43,41.4,16,13.2,631,323,308,631,1,95,"Dandenong South Primary School, Dandenong, VIC, 3175","{'results': [{'address_components': [{'long_name': '52', 'short_name': '52', 'types': ['street_number']}, {'long_name': 'Kirkham Road', 'short_name': 'Kirkham Rd', 'types': ['route']}, {'long_name': 'Dandenong', 'short_name': 'Dandenong', 'types': ['locality', 'political']}, {'long_name': 'Greater Dandenong City', 'short_name': 'Greater Dandenong', 'types': ['administrative_area_level_2', 'political']}, {'long_name': 'Victoria', 'short_name': 'VIC', 'types': ['administrative_area_level_1', 'political']}, {'long_name': 'Australia', 'short_name': 'AU', 'types': ['country', 'political']}, {'long_name': '3175', 'short_name': '3175', 'types': ['postal_code']}], 'formatted_address': '52 Kirkham Rd, Dandenong VIC 3175, Australia', 'geometry': {'location': {'lat': -37.9984834, 'lng': 145.2121714}, 'location_type': 'ROOFTOP', 'viewport': {'northeast': {'lat': -37.9971344197085, 'lng': 145.2135203802915}, 'southwest': {'lat': -37.9998323802915, 'lng': 145.2108224197085}}}, 'place_id': 'ChIJD5wcLfAT1moRH8ijzqQHh_I', 'plus_code': {'compound_code': '2626+JV Dandenong, Victoria, Australia', 'global_code': '4RJ72626+JV'}, 'types': ['establishment', 'point_of_interest', 'primary_school', 'school']}], 'status': 'OK'}",145.2121714,y
2016,11468,Wilmot Road Primary School Shepparton,Shepparton,VIC,3630,Government,Primary,School Single Entity,Individual Reporting,Department of Education and Training Victoria,Prep-6,Inner Regional,844,84,11,4,1,25,23.6,17,11.6,282,141,141,282,10,74,"Wilmot Road Primary School Shepparton, Shepparton, VIC, 3630","{'results': [{'address_components': [{'long_name': '84-90', 'short_name': '84-90', 'types': ['street_number']}, {'long_name': 'Wilmot Road', 'short_name': 'Wilmot Rd', 'types': ['route']}, {'long_name': 'Shepparton', 'short_name': 'Shepparton', 'types': ['locality', 'political']}, {'long_name': 'Greater Shepparton City', 'short_name': 'Greater Shepparton', 'types': ['administrative_area_level_2', 'political']}, {'long_name': 'Victoria', 'short_name': 'VIC', 'types': ['administrative_area_level_1', 'political']}, {'long_name': 'Australia', 'short_name': 'AU', 'types': ['country', 'political']}, {'long_name': '3630', 'short_name': '3630', 'types': ['postal_code']}], 'formatted_address': '84-90 Wilmot Rd, Shepparton VIC 3630, Australia', 'geometry': {'location': {'lat': -36.3984105, 'lng': 145.4055839}, 'location_type': 'ROOFTOP', 'viewport': {'northeast': {'lat': -36.3970615197085, 'lng': 145.4069328802915}, 'southwest': {'lat': -36.3997594802915, 'lng': 145.4042349197085}}}, 'place_id': 'ChIJEa5S5VOB2GoRpvdL1-9W9TU', 'plus_code': {'compound_code': 'JC24+J6 Shepparton - Mooroopna, Victoria, Australia', 'global_code': '4RM7JC24+J6'}, 'types': ['establishment', 'point_of_interest', 'primary_school', 'school']}], 'status': 'OK'}",145.4055839,y
2016,7571,St Albans Heights Primary School,St Albans,VIC,3021,Government,Primary,School Single Entity,Individual Reporting,Department of Education and Training Victoria,Prep-6,Major Cities,908,65,21,12,3,25,21.8,17,11.5,261,132,129,261,0,91,"St Albans Heights Primary School, St Albans, VIC, 3021","{'results': [{'address_components': [{'long_name': 'St Albans Heights Primary', 'short_name': 'St Albans Heights Primary', 'types': ['premise']}, {'long_name': '1', 'short_name': '1', 'types': ['street_number']}, {'long_name': 'Norwich Street', 'short_name': 'Norwich St', 'types': ['route']}, {'long_name': 'St Albans', 'short_name': 'St Albans', 'types': ['locality', 'political']}, {'long_name': 'Brimbank City', 'short_name': 'Brimbank', 'types': ['administrative_area_level_2', 'political']}, {'long_name': 'Victoria', 'short_name': 'VIC', 'types': ['administrative_area_level_1', 'political']}, {'long_name': 'Australia', 'short_name': 'AU', 'types': ['country', 'political']}, {'long_name': '3021', 'short_name': '3021', 'types': ['postal_code']}], 'formatted_address': 'St Albans Heights Primary, 1 Norwich St, St Albans VIC 3021, Australia', 'geometry': {'location': {'lat': -37.7484898, 'lng': 144.8091928}, 'location_type': 'ROOFTOP', 'viewport': {'northeast': {'lat': -37.7471408197085, 'lng': 144.8105417802915}, 'southwest': {'lat': -37.7498387802915, 'lng': 144.8078438197085}}}, 'place_id': 'ChIJv1dMWKJf1moRYGdPm_ja5bo', 'plus_code': {'compound_code': '7R25+JM St Albans, Victoria, Australia', 'global_code': '4RJ67R25+JM'}, 'types': ['establishment', 'point_of_interest', 'primary_school', 'school']}], 'status': 'OK'}",144.8091928,y
2016,29976,Coolaroo South Primary School,Coolaroo,VIC,3048,Government,Primary,School Single Entity,Individual Reporting,Department of Education and Training Victoria,Prep-6,Major Cities,851,84,13,3,0,25,20.7,23,12.1,259,114,145,258.4,3,79,"Coolaroo South Primary School, Coolaroo, VIC, 3048","{'results': [{'address_components': [{'long_name': 'Bushfield Crescent', 'short_name': 'Bushfield Cres', 'types': ['route']}, {'long_name': 'Coolaroo', 'short_name': 'Coolaroo', 'types': ['locality', 'political']}, {'long_name': 'City of Hume', 'short_name': 'Hume', 'types': ['administrative_area_level_2', 'political']}, {'long_name': 'Victoria', 'short_name': 'VIC', 'types': ['administrative_area_level_1', 'political']}, {'long_name': 'Australia', 'short_name': 'AU', 'types': ['country', 'political']}, {'long_name': '3048', 'short_name': '3048', 'types': ['postal_code']}], 'formatted_address': 'Bushfield Cres, Coolaroo VIC 3048, Australia', 'geometry': {'location': {'lat': -37.6618425, 'lng': 144.9327619}, 'location_type': 'GEOMETRIC_CENTER', 'viewport': {'northeast': {'lat': -37.6604935197085, 'lng': 144.9341108802915}, 'southwest': {'lat': -37.6631914802915, 'lng': 144.9314129197085}}}, 'place_id': 'ChIJqapRHG5Q1moRpDSN_xN459w', 'plus_code': {'compound_code': '8WQM+74 Coolaroo, Victoria, Australia', 'global_code': '4RJ68WQM+74'}, 'types': ['establishment', 'point_of_interest', 'primary_school', 'school']}], 'status': 'OK'}",144.9327619,y
2016,9472,Bell Park North Primary School,Bell Park,VIC,3215,Government,Primary,School Head Campus,Rolled Reporting,Department of Education and Training Victoria,Prep-6,Major Cities,923,60,28,11,2,29,28.4,16,9.2,194,100,94,194,5,28,"Bell Park North Primary School, Bell Park, VIC, 3215","{'results': [{'address_components': [{'long_name': '16-26', 'short_name': '16-26', 'types': ['street_number']}, {'long_name': 'Barton Street', 'short_name': 'Barton St', 'types': ['route']}, {'long_name': 'Bell Park', 'short_name': 'Bell Park', 'types': ['locality', 'political']}, {'long_name': 'Greater Geelong City', 'short_name': 'Greater Geelong', 'types': ['administrative_area_level_2', 'political']}, {'long_name': 'Victoria', 'short_name': 'VIC', 'types': ['administrative_area_level_1', 'political']}, {'long_name': 'Australia', 'short_name': 'AU', 'types': ['country', 'political']}, {'long_name': '3215', 'short_name': '3215', 'types': ['postal_code']}], 'formatted_address': '16-26 Barton St, Bell Park VIC 3215, Australia', 'geometry': {'location': {'lat': -38.1059095, 'lng': 144.3356864}, 'location_type': 'ROOFTOP', 'viewport': {'northeast': {'lat': -38.1045605197085, 'lng': 144.3370353802915}, 'southwest': {'lat': -38.1072584802915, 'lng': 144.3343374197085}}}, 'place_id': 'ChIJDfAjgCUR1GoRsKTcb7C1JHI', 'plus_code': {'compound_code': 'V8VP+J7 Geelong, Victoria, Australia', 'global_code': '4RH6V8VP+J7'}, 'types': ['establishment', 'point_of_interest', 'school']}], 'status': 'OK'}",144.3356864,y
2016,8045,Campbellfield Heights Primary School,Campbellfield,VIC,3061,Government,Primary,School Single Entity,Individual Reporting,Department of Education and Training Victoria,Prep-6,Major Cities,896,68,22,8,1,16,14.6,19,10.4,203,96,107,203,0,93,"Campbellfield Heights Primary School, Campbellfield, VIC, 3061","{'results': [{'address_components': [{'long_name': 'Laurel Crescent', 'short_name': 'Laurel Cres', 'types': ['route']}, {'long_name': 'Campbellfield', 'short_name': 'Campbellfield', 'types': ['locality', 'political']}, {'long_name': 'City of Hume', 'short_name': 'Hume', 'types': ['administrative_area_level_2', 'political']}, {'long_name': 'Victoria', 'short_name': 'VIC', 'types': ['administrative_area_level_1', 'political']}, {'long_name': 'Australia', 'short_name': 'AU', 'types': ['country', 'political']}, {'long_name': '3061', 'short_name': '3061', 'types': ['postal_code']}], 'formatted_address': 'Laurel Cres, Campbellfield VIC 3061, Australia', 'geometry': {'location': {'lat': -37.6750029, 'lng': 144.9660813}, 'location_type': 'GEOMETRIC_CENTER', 'viewport': {'northeast': {'lat': -37.6736539197085, 'lng': 144.9674302802915}, 'southwest': {'lat': -37.6763518802915, 'lng': 144.9647323197085}}}, 'place_id': 'ChIJG0uI4fxP1moR2wKrk9N6xy0', 'plus_code': {'compound_code': '8XF8+XC Campbellfield, Victoria, Australia', 'global_code': '4RJ68XF8+XC'}, 'types': ['establishment', 'point_of_interest', 'primary_school', 'school']}], 'status': 'OK'}",144.9660813,y
2016,7576,Stevensville Primary School,St Albans,VIC,3021,Government,Primary,School Single Entity,Individual Reporting,Department of Education and Training Victoria,Prep-6,Major Cities,908,68,19,10,3,18,17.2,8,5.5,199,89,110,199,0,83,"Stevensville Primary School, St Albans, VIC, 3021","{'results': [{'address_components': [{'long_name': '52', 'short_name': '52', 'types': ['street_number']}, {'long_name': 'Kings Road', 'short_name': 'Kings Rd', 'types': ['route']}, {'long_name': 'St Albans', 'short_name': 'St Albans', 'types': ['locality', 'political']}, {'long_name': 'Brimbank City', 'short_name': 'Brimbank', 'types': ['administrative_area_level_2', 'political']}, {'long_name': 'Victoria', 'short_name': 'VIC', 'types': ['administrative_area_level_1', 'political']}, {'long_name': 'Australia', 'short_name': 'AU', 'types': ['country', 'political']}, {'long_name': '3021', 'short_name': '3021', 'types': ['postal_code']}], 'formatted_address': '52 Kings Rd, St Albans VIC 3021, Australia', 'geometry': {'location': {'lat': -37.7363807, 'lng': 144.7813753}, 'location_type': 'ROOFTOP', 'viewport': {'northeast': {'lat': -37.73503171970849, 'lng': 144.7827242802915}, 'southwest': {'lat': -37.73772968029149, 'lng': 144.7800263197085}}}, 'place_id': 'ChIJz8CbIHz11moRavYbM6klZtw', 'plus_code': {'compound_code': '7Q7J+CH St Albans, Victoria, Australia', 'global_code': '4RJ67Q7J+CH'}, 'types': ['establishment', 'point_of_interest', 'primary_school', 'school']}], 'status': 'OK'}",144.7813753,y
2016,7578,Deer Park North Primary School,Deer Park,VIC,3023,Government,Primary,School Single Entity,Individual Reporting,Department of Education and Training Victoria,Prep-6,Major Cities,925,61,26,11,2,26,24,16,11.3,373,176,197,367.4,1,72,"Deer Park North Primary School, Deer Park, VIC, 3023","{'results': [{'address_components': [{'long_name': '18-36', 'short_name': '18-36', 'types': ['street_number']}, {'long_name': 'Mawson Avenue', 'short_name': 'Mawson Ave', 'types': ['route']}, {'long_name': 'Deer Park', 'short_name': 'Deer Park', 'types': ['locality', 'political']}, {'long_name': 'Brimbank City', 'short_name': 'Brimbank', 'types': ['administrative_area_level_2', 'political']}, {'long_name': 'Victoria', 'short_name': 'VIC', 'types': ['administrative_area_level_1', 'political']}, {'long_name': 'Australia', 'short_name': 'AU', 'types': ['country', 'political']}, {'long_name': '3023', 'short_name': '3023', 'types': ['postal_code']}], 'formatted_address': '18-36 Mawson Ave, Deer Park VIC 3023, Australia', 'geometry': {'location': {'lat': -37.7562198, 'lng': 144.7731097}, 'location_type': 'ROOFTOP', 'viewport': {'northeast': {'lat': -37.7548708197085, 'lng': 144.7744586802915}, 'southwest': {'lat': -37.7575687802915, 'lng': 144.7717607197085}}}, 'place_id': 'ChIJq2UxQUX11moRFigGQgoSWjo', 'plus_code': {'compound_code': '6QVF+G6 Deer Park, Victoria, Australia', 'global_code': '4RJ66QVF+G6'}, 'types': ['establishment', 'point_of_interest', 'primary_school', 'school']}], 'status': 'OK'}",144.7731097,y
2016,8017,Broadmeadows Valley Primary School,Broadmeadows,VIC,3047,Government,Primary,School Head Campus,Rolled Reporting,Department of Education and Training Victoria,Prep-6,Major Cities,903,66,20,12,2,22,20.3,10,5.1,245,110,135,245,7,66,"Broadmeadows Valley Primary School, Broadmeadows, VIC, 3047","{'results': [{'address_components': [{'long_name': 'Dimboola Road', 'short_name': 'Dimboola Rd', 'types': ['route']}, {'long_name': 'Broadmeadows', 'short_name': 'Broadmeadows', 'types': ['locality', 'political']}, {'long_name': 'City of Hume', 'short_name': 'Hume', 'types': ['administrative_area_level_2', 'political']}, {'long_name': 'Victoria', 'short_name': 'VIC', 'types': ['administrative_area_level_1', 'political']}, {'long_name': 'Australia', 'short_name': 'AU', 'types': ['country', 'political']}, {'long_name': '3047', 'short_name': '3047', 'types': ['postal_code']}], 'formatted_address': 'Dimboola Rd, Broadmeadows VIC 3047, Australia', 'geometry': {'location': {'lat': -37.6815182, 'lng': 144.9130868}, 'location_type': 'GEOMETRIC_CENTER', 'viewport': {'northeast': {'lat': -37.6801692197085, 'lng': 144.9144357802915}, 'southwest': {'lat': -37.6828671802915, 'lng': 144.9117378197085}}}, 'place_id': 'ChIJUR52RWda1moRYEBnna-I16I', 'plus_code': {'compound_code': '8W97+96 Broadmeadows, Victoria, Australia', 'global_code': '4RJ68W97+96'}, 'types': ['establishment', 'point_of_interest', 'primary_school', 'school']}], 'status': 'OK'}",144.9130868,y
2016,8029,Bethal Primary School,Meadow Heights,VIC,3048,Government,Primary,School Single Entity,Individual Reporting,Department of Education and Training Victoria,Prep-6,Major Cities,890,71,19,9,1,22,19.4,24,17.7,225,109,116,225,1,81,"Bethal Primary School, Meadow Heights, VIC, 3048","{'results': [{'address_components': [{'long_name': '26-52', 'short_name': '26-52', 'types': ['street_number']}, {'long_name': 'Eldorado Crescent', 'short_name': 'Eldorado Cres', 'types': ['route']}, {'long_name': 'Meadow Heights', 'short_name': 'Meadow Heights', 'types': ['locality', 'political']}, {'long_name': 'City of Hume', 'short_name': 'Hume', 'types': ['administrative_area_level_2', 'political']}, {'long_name': 'Victoria', 'short_name': 'VIC', 'types': ['administrative_area_level_1', 'political']}, {'long_name': 'Australia', 'short_name': 'AU', 'types': ['country', 'political']}, {'long_name': '3048', 'short_name': '3048', 'types': ['postal_code']}], 'formatted_address': '26-52 Eldorado Cres, Meadow Heights VIC 3048, Australia', 'geometry': {'location': {'lat': -37.659406, 'lng': 144.918219}, 'location_type': 'ROOFTOP', 'viewport': {'northeast': {'lat': -37.6580570197085, 'lng': 144.9195679802915}, 'southwest': {'lat': -37.66075498029149, 'lng': 144.9168700197085}}}, 'place_id': 'ChIJozrdb31Q1moR4R22Axa3Sq0', 'plus_code': {'compound_code': '8WR9+67 Meadow Heights, Victoria, Australia', 'global_code': '4RJ68WR9+67'}, 'types': ['establishment', 'point_of_interest', 'primary_school', 'school']}], 'status': 'OK'}",144.918219,y
2016,10737,Sunbury Heights Primary School,Sunbury,VIC,3429,Government,Primary,School Single Entity,Individual Reporting,Department of Education and Training Victoria,Prep-6,Major Cities,973,38,35,22,5,23,20.8,11,8.4,323,146,177,323,4,7,"Sunbury Heights Primary School, Sunbury, VIC, 3429","{'results': [{'address_components': [{'long_name': 'Charter Road East', 'short_name': 'Charter Rd E', 'types': ['route']}, {'long_name': 'Sunbury', 'short_name': 'Sunbury', 'types': ['locality', 'political']}, {'long_name': 'City of Hume', 'short_name': 'Hume', 'types': ['administrative_area_level_2', 'political']}, {'long_name': 'Victoria', 'short_name': 'VIC', 'types': ['administrative_area_level_1', 'political']}, {'long_name': 'Australia', 'short_name': 'AU', 'types': ['country', 'political']}, {'long_name': '3429', 'short_name': '3429', 'types': ['postal_code']}], 'formatted_address': 'Charter Rd E, Sunbury VIC 3429, Australia', 'geometry': {'location': {'lat': -37.5811151, 'lng': 144.7060804}, 'location_type': 'GEOMETRIC_CENTER', 'viewport': {'northeast': {'lat': -37.5797661197085, 'lng': 144.7074293802915}, 'southwest': {'lat': -37.5824640802915, 'lng': 144.7047314197085}}}, 'place_id': 'ChIJl3IGo_H51moRh154hcsq3vY', 'plus_code': {'compound_code': 'CP94+HC Sunbury, Victoria, Australia', 'global_code': '4RJ6CP94+HC'}, 'types': ['establishment', 'point_of_interest', 'primary_school', 'school']}], 'status': 'OK'}",144.7060804,y
2016,14867,Meadow Heights Primary School,Meadow Heights,VIC,3048,Government,Primary,School Single Entity,Individual Reporting,Department of Education and Training Victoria,Prep-6,Major Cities,905,67,22,9,2,44,36.4,33,21.2,481,244,237,481,1,93,"Meadow Heights Primary School, Meadow Heights, VIC, 3048","{'results': [{'address_components': [{'long_name': '50-70', 'short_name': '50-70', 'types': ['street_number']}, {'long_name': 'Paringa Boulevard', 'short_name': 'Paringa Blvd', 'types': ['route']}, {'long_name': 'Meadow Heights', 'short_name': 'Meadow Heights', 'types': ['locality', 'political']}, {'long_name': 'City of Hume', 'short_name': 'Hume', 'types': ['administrative_area_level_2', 'political']}, {'long_name': 'Victoria', 'short_name': 'VIC', 'types': ['administrative_area_level_1', 'political']}, {'long_name': 'Australia', 'short_name': 'AU', 'types': ['country', 'political']}, {'long_name': '3048', 'short_name': '3048', 'types': ['postal_code']}], 'formatted_address': '50-70 Paringa Blvd, Meadow Heights VIC 3048, Australia', 'geometry': {'location': {'lat': -37.6502715, 'lng': 144.9238658}, 'location_type': 'ROOFTOP', 'viewport': {'northeast': {'lat': -37.6489225197085, 'lng': 144.9252147802915}, 'southwest': {'lat': -37.6516204802915, 'lng': 144.9225168197085}}}, 'place_id': 'ChIJEVoug2dQ1moR0_hFZvG2-3w', 'plus_code': {'compound_code': '8WXF+VG Meadow Heights, Victoria, Australia', 'global_code': '4RJ68WXF+VG'}, 'types': ['establishment', 'point_of_interest', 'primary_school', 'school']}], 'status': 'OK'}",144.9238658,y
2016,16435,Craigieburn South Primary School,Craigieburn,VIC,3064,Government,Primary,School Single Entity,Individual Reporting,Department of Education and Training Victoria,Prep-6,Major Cities,972,42,31,20,8,43,41.6,25,18.8,661,312,349,661,2,53,"Craigieburn South Primary School, Craigieburn, VIC, 3064","{'results': [{'address_components': [{'long_name': '102', 'short_name': '102', 'types': ['street_number']}, {'long_name': 'Hothlyn Drive', 'short_name': 'Hothlyn Dr', 'types': ['route']}, {'long_name': 'Craigieburn', 'short_name': 'Craigieburn', 'types': ['locality', 'political']}, {'long_name': 'City of Hume', 'short_name': 'Hume', 'types': ['administrative_area_level_2', 'political']}, {'long_name': 'Victoria', 'short_name': 'VIC', 'types': ['administrative_area_level_1', 'political']}, {'long_name': 'Australia', 'short_name': 'AU', 'types': ['country', 'political']}, {'long_name': '3064', 'short_name': '3064', 'types': ['postal_code']}], 'formatted_address': '102 Hothlyn Dr, Craigieburn VIC 3064, Australia', 'geometry': {'location': {'lat': -37.6083982, 'lng': 144.9357328}, 'location_type': 'ROOFTOP', 'viewport': {'northeast': {'lat': -37.6070492197085, 'lng': 144.9370817802915}, 'southwest': {'lat': -37.6097471802915, 'lng': 144.9343838197085}}}, 'place_id': 'ChIJvTwXX5JR1moRva56vaxB_sY', 'plus_code': {'compound_code': '9WRP+J7 Craigieburn, Victoria, Australia', 'global_code': '4RJ69WRP+J7'}, 'types': ['establishment', 'point_of_interest', 'primary_school', 'school']}], 'status': 'OK'}",144.9357328,y
2016,17176,Roxburgh Park Primary School,Roxburgh Park,VIC,3064,Government,Primary,School Single Entity,Individual Reporting,Department of Education and Training Victoria,Prep-6,Major Cities,959,47,29,18,6,40,33,19,12.2,480,250,230,480,1,80,"Roxburgh Park Primary School, Roxburgh Park, VIC, 3064","{'results': [{'address_components': [{'long_name': '7', 'short_name': '7', 'types': ['subpremise']}, {'long_name': '21', 'short_name': '21', 'types': ['street_number']}, {'long_name': 'Almands Avenue', 'short_name': 'Almands Ave', 'types': ['route']}, {'long_name': 'Roxburgh Park', 'short_name': 'Roxburgh Park', 'types': ['locality', 'political']}, {'long_name': 'City of Hume', 'short_name': 'Hume', 'types': ['administrative_area_level_2', 'political']}, {'long_name': 'Victoria', 'short_name': 'VIC', 'types': ['administrative_area_level_1', 'political']}, {'long_name': 'Australia', 'short_name': 'AU', 'types': ['country', 'political']}, {'long_name': '3064', 'short_name': '3064', 'types': ['postal_code']}], 'formatted_address': '7/21 Almands Ave, Roxburgh Park VIC 3064, Australia', 'geometry': {'location': {'lat': -37.6338651, 'lng': 144.9308736}, 'location_type': 'ROOFTOP', 'viewport': {'northeast': {'lat': -37.63251611970851, 'lng': 144.9322225802915}, 'southwest': {'lat': -37.6352140802915, 'lng': 144.9295246197085}}}, 'place_id': 'ChIJ7SHmtUxQ1moRJw3HL-oKOlw', 'plus_code': {'compound_code': '9W8J+F8 Roxburgh Park, Victoria, Australia', 'global_code': '4RJ69W8J+F8'}, 'types': ['establishment', 'point_of_interest', 'primary_school', 'school']}], 'status': 'OK'}",144.9308736,y
2016,18061,Roxburgh Rise Primary School,Roxburgh Park,VIC,3064,Government,Primary,School Single Entity,Individual Reporting,Department of Education and Training Victoria,Prep-6,Major Cities,946,50,27,17,5,67,57.2,16,12.4,809,385,424,809,1,79,"Roxburgh Rise Primary School, Roxburgh Park, VIC, 3064","{'results': [{'address_components': [{'long_name': 'Lockwood Drive', 'short_name': 'Lockwood Dr', 'types': ['route']}, {'long_name': 'Roxburgh Park', 'short_name': 'Roxburgh Park', 'types': ['locality', 'political']}, {'long_name': 'City of Hume', 'short_name': 'Hume', 'types': ['administrative_area_level_2', 'political']}, {'long_name': 'Victoria', 'short_name': 'VIC', 'types': ['administrative_area_level_1', 'political']}, {'long_name': 'Australia', 'short_name': 'AU', 'types': ['country', 'political']}, {'long_name': '3064', 'short_name': '3064', 'types': ['postal_code']}], 'formatted_address': 'Lockwood Dr, Roxburgh Park VIC 3064, Australia', 'geometry': {'location': {'lat': -37.61617469999999, 'lng': 144.9227706}, 'location_type': 'GEOMETRIC_CENTER', 'viewport': {'northeast': {'lat': -37.6148257197085, 'lng': 144.9241195802915}, 'southwest': {'lat': -37.6175236802915, 'lng': 144.9214216197085}}}, 'place_id': 'ChIJ54sI46NR1moRbf1ooKVwU1s', 'plus_code': {'compound_code': '9WMF+G4 Roxburgh Park, Victoria, Australia', 'global_code': '4RJ69WMF+G4'}, 'types': ['establishment', 'point_of_interest', 'primary_school', 'school']}], 'status': 'OK'}",144.9227706,y
2016,28837,Springvale Rise Primary School,Springvale,VIC,3171,Government,Primary,School Head Campus,Rolled Reporting,Department of Education and Training Victoria,Prep-6,Major Cities,916,59,20,15,6,47,39.9,16,12.3,530,271,259,530,0,91,"Springvale Rise Primary School, Springvale, VIC, 3171","{'results': [{'address_components': [{'long_name': '32-52', 'short_name': '32-52', 'types': ['street_number']}, {'long_name': 'Wareham Street', 'short_name': 'Wareham St', 'types': ['route']}, {'long_name': 'Springvale', 'short_name': 'Springvale', 'types': ['locality', 'political']}, {'long_name': 'Greater Dandenong City', 'short_name': 'Greater Dandenong', 'types': ['administrative_area_level_2', 'political']}, {'long_name': 'Victoria', 'short_name': 'VIC', 'types': ['administrative_area_level_1', 'political']}, {'long_name': 'Australia', 'short_name': 'AU', 'types': ['country', 'political']}, {'long_name': '3171', 'short_name': '3171', 'types': ['postal_code']}], 'formatted_address': '32-52 Wareham St, Springvale VIC 3171, Australia', 'geometry': {'location': {'lat': -37.9399582, 'lng': 145.1588828}, 'location_type': 'ROOFTOP', 'viewport': {'northeast': {'lat': -37.9386092197085, 'lng': 145.1602317802915}, 'southwest': {'lat': -37.9413071802915, 'lng': 145.1575338197085}}}, 'place_id': 'ChIJ2cLtf94U1moRz9fcxcZQQo4', 'plus_code': {'compound_code': '3565+2H Springvale, Victoria, Australia', 'global_code': '4RJ73565+2H'}, 'types': ['establishment', 'point_of_interest', 'primary_school', 'school']}, {'address_components': [{'long_name': '355A', 'short_name': '355A', 'types': ['street_number']}, {'long_name': 'Springvale Road', 'short_name': 'Springvale Rd', 'types': ['route']}, {'long_name': 'Springvale', 'short_name': 'Springvale', 'types': ['locality', 'political']}, {'long_name': 'Greater Dandenong City', 'short_name': 'Greater Dandenong', 'types': ['administrative_area_level_2', 'political']}, {'long_name': 'Victoria', 'short_name': 'VIC', 'types': ['administrative_area_level_1', 'political']}, {'long_name': 'Australia', 'short_name': 'AU', 'types': ['country', 'political']}, {'long_name': '3171', 'short_name': '3171', 'types': ['postal_code']}], 'formatted_address': '355A Springvale Rd, Springvale VIC 3171, Australia', 'geometry': {'location': {'lat': -37.9522732, 'lng': 145.1528219}, 'location_type': 'ROOFTOP', 'viewport': {'northeast': {'lat': -37.9509242197085, 'lng': 145.1541708802915}, 'southwest': {'lat': -37.9536221802915, 'lng': 145.1514729197085}}}, 'place_id': 'ChIJd_z-nrgU1moRX49xGXNBXBE', 'plus_code': {'compound_code': '25X3+34 Springvale, Victoria, Australia', 'global_code': '4RJ725X3+34'}, 'types': ['establishment', 'point_of_interest', 'primary_school', 'school']}], 'status': 'OK'}",145.1588828,y
2016,27630,Mount Ridley P-12 College,Craigieburn,VIC,3064,Government,Combined,School Single Entity,Individual Reporting,Department of Education and Training Victoria,Prep-12,Major Cities,969,41,33,20,6,151,145.4,51,43.9,2040,984,1056,2040,2,58,"Mount Ridley P-12 College, Craigieburn, VIC, 3064","{'results': [{'address_components': [{'long_name': '2-30', 'short_name': '2-30', 'types': ['street_number']}, {'long_name': 'Hampton Street', 'short_name': 'Hampton St', 'types': ['route']}, {'long_name': 'Craigieburn', 'short_name': 'Craigieburn', 'types': ['locality', 'political']}, {'long_name': 'City of Hume', 'short_name': 'Hume', 'types': ['administrative_area_level_2', 'political']}, {'long_name': 'Victoria', 'short_name': 'VIC', 'types': ['administrative_area_level_1', 'political']}, {'long_name': 'Australia', 'short_name': 'AU', 'types': ['country', 'political']}, {'long_name': '3064', 'short_name': '3064', 'types': ['postal_code']}], 'formatted_address': '2-30 Hampton St, Craigieburn VIC 3064, Australia', 'geometry': {'location': {'lat': -37.5780251, 'lng': 144.9209515}, 'location_type': 'ROOFTOP', 'viewport': {'northeast': {'lat': -37.57667611970849, 'lng': 144.9223004802915}, 'southwest': {'lat': -37.57937408029149, 'lng': 144.9196025197085}}}, 'place_id': 'ChIJhfPVyjZS1moRDw3zwO9mE7g', 'plus_code': {'compound_code': 'CWCC+Q9 Craigieburn, Victoria, Australia', 'global_code': '4RJ6CWCC+Q9'}, 'types': ['establishment', 'point_of_interest', 'school', 'university']}], 'status': 'OK'}",144.9209515,y
2016,2126,Holy Eucharist School,St Albans South,VIC,3021,Catholic,Primary,School Single Entity,Individual Reporting,Catholic Education Commision Victoria,Prep-6,Major Cities,972,43,32,17,8,33,27.7,15,10.4,372,163,209,372,,94,"Holy Eucharist School, St Albans South, VIC, 3021","{'results': [{'address_components': [{'long_name': '1A', 'short_name': '1A', 'types': ['street_number']}, {'long_name': 'Oleander Drive', 'short_name': 'Oleander Dr', 'types': ['route']}, {'long_name': 'St Albans', 'short_name': 'St Albans', 'types': ['locality', 'political']}, {'long_name': 'Brimbank City', 'short_name': 'Brimbank', 'types': ['administrative_area_level_2', 'political']}, {'long_name': 'Victoria', 'short_name': 'VIC', 'types': ['administrative_area_level_1', 'political']}, {'long_name': 'Australia', 'short_name': 'AU', 'types': ['country', 'political']}, {'long_name': '3021', 'short_name': '3021', 'types': ['postal_code']}], 'formatted_address': '1A Oleander Dr, St Albans VIC 3021, Australia', 'geometry': {'location': {'lat': -37.7563047, 'lng': 144.8110874}, 'location_type': 'ROOFTOP', 'viewport': {'northeast': {'lat': -37.7549557197085, 'lng': 144.8124363802915}, 'southwest': {'lat': -37.7576536802915, 'lng': 144.8097384197085}}}, 'place_id': 'ChIJ6yMBILxf1moR8cAN2uoiN7c', 'plus_code': {'compound_code': '6RV6+FC St Albans, Victoria, Australia', 'global_code': '4RJ66RV6+FC'}, 'types': ['establishment', 'point_of_interest', 'primary_school', 'school']}], 'status': 'OK'}",144.8110874,y
2016,14344,Good Samaritan Catholic Primary School,Roxburgh Park,VIC,3064,Catholic,Primary,School Single Entity,Individual Reporting,Catholic Education Commision Victoria,Prep-6,Major Cities,932,57,23,14,5,62,51.3,24,17.9,724,344,380,722.2,0,86,"Good Samaritan Catholic Primary School, Roxburgh Park, VIC, 3064","{'results': [{'address_components': [{'long_name': '1', 'short_name': '1', 'types': ['subpremise']}, {'long_name': '29', 'short_name': '29', 'types': ['street_number']}, {'long_name': 'Southern Cross Drive', 'short_name': 'Southern Cross Dr', 'types': ['route']}, {'long_name': 'Roxburgh Park', 'short_name': 'Roxburgh Park', 'types': ['locality', 'political']}, {'long_name': 'City of Hume', 'short_name': 'Hume', 'types': ['administrative_area_level_2', 'political']}, {'long_name': 'Victoria', 'short_name': 'VIC', 'types': ['administrative_area_level_1', 'political']}, {'long_name': 'Australia', 'short_name': 'AU', 'types': ['country', 'political']}, {'long_name': '3064', 'short_name': '3064', 'types': ['postal_code']}], 'formatted_address': '1/29 Southern Cross Dr, Roxburgh Park VIC 3064, Australia', 'geometry': {'location': {'lat': -37.6229664, 'lng': 144.9345857}, 'location_type': 'ROOFTOP', 'viewport': {'northeast': {'lat': -37.6216174197085, 'lng': 144.9359346802915}, 'southwest': {'lat': -37.6243153802915, 'lng': 144.9332367197085}}}, 'place_id': 'ChIJZ4F6F7lR1moRTqz-tPQp0eM', 'plus_code': {'compound_code': '9WGM+RR Roxburgh Park, Victoria, Australia', 'global_code': '4RJ69WGM+RR'}, 'types': ['establishment', 'point_of_interest', 'primary_school', 'school']}], 'status': 'OK'}",144.9345857,y
2016,11274,Woodridge North State School,Woodridge,QLD,4114,Government,Primary,School Single Entity,Individual Reporting,Department of Education Queensland,Prep-6,Major Cities,913,61,27,10,2,42,35.6,36,21.4,518,250,268,518,11,51,"Woodridge North State School, Woodridge, QLD, 4114","{'results': [{'address_components': [{'long_name': '3', 'short_name': '3', 'types': ['subpremise']}, {'long_name': '11', 'short_name': '11', 'types': ['street_number']}, {'long_name': 'Arthur Street', 'short_name': 'Arthur St', 'types': ['route']}, {'long_name': 'Woodridge', 'short_name': 'Woodridge', 'types': ['locality', 'political']}, {'long_name': 'Logan City', 'short_name': 'Logan', 'types': ['administrative_area_level_2', 'political']}, {'long_name': 'Queensland', 'short_name': 'QLD', 'types': ['administrative_area_level_1', 'political']}, {'long_name': 'Australia', 'short_name': 'AU', 'types': ['country', 'political']}, {'long_name': '4114', 'short_name': '4114', 'types': ['postal_code']}], 'formatted_address': '3/11 Arthur St, Woodridge QLD 4114, Australia', 'geometry': {'location': {'lat': -27.6262846, 'lng': 153.1062644}, 'location_type': 'ROOFTOP', 'viewport': {'northeast': {'lat': -27.6249356197085, 'lng': 153.1076133802915}, 'southwest': {'lat': -27.6276335802915, 'lng': 153.1049154197085}}}, 'place_id': 'ChIJ7WOnfXZEkWsRtsXVWgdn9lI', 'plus_code': {'compound_code': '94F4+FG Woodridge, Queensland, Australia', 'global_code': '5R4M94F4+FG'}, 'types': ['establishment', 'point_of_interest', 'school']}], 'status': 'OK'}",153.1062644,y
2016,11275,Woodridge State School,Logan Central,QLD,4114,Government,Primary,School Single Entity,Individual Reporting,Department of Education Queensland,Prep-6,Major Cities,863,76,17,6,2,86,76.4,50,33.2,744,376,368,744,9,71,"Woodridge State School, Logan Central, QLD, 4114","{'results': [{'address_components': [{'long_name': 'Railway Parade', 'short_name': 'Railway Parade', 'types': ['route']}, {'long_name': 'Woodridge', 'short_name': 'Woodridge', 'types': ['locality', 'political']}, {'long_name': 'Logan City', 'short_name': 'Logan', 'types': ['administrative_area_level_2', 'political']}, {'long_name': 'Queensland', 'short_name': 'QLD', 'types': ['administrative_area_level_1', 'political']}, {'long_name': 'Australia', 'short_name': 'AU', 'types': ['country', 'political']}, {'long_name': '4114', 'short_name': '4114', 'types': ['postal_code']}], 'formatted_address': 'Wembley Road &, Railway Parade, Woodridge QLD 4114, Australia', 'geometry': {'location': {'lat': -27.6413156, 'lng': 153.1044006}, 'location_type': 'GEOMETRIC_CENTER', 'viewport': {'northeast': {'lat': -27.6399666197085, 'lng': 153.1057495802915}, 'southwest': {'lat': -27.64266458029151, 'lng': 153.1030516197085}}}, 'place_id': 'ChIJX2i0zg1EkWsRglrzwMld7ro', 'plus_code': {'compound_code': '9453+FQ Logan Central, Queensland, Australia', 'global_code': '5R4M9453+FQ'}, 'types': ['establishment', 'point_of_interest', 'primary_school', 'school']}], 'status': 'OK'}",153.1044006,y
2016,11671,Riverview State School,Riverview,QLD,4303,Government,Primary,School Single Entity,Individual Reporting,Department of Education Queensland,Prep-6,Major Cities,858,74,19,6,1,21,18.5,19,14.8,269,138,131,269,23,30,"Riverview State School, Riverview, QLD, 4303","{'results': [{'address_components': [{'long_name': '131', 'short_name': '131', 'types': ['street_number']}, {'long_name': 'Old Ipswich Road', 'short_name': 'Old Ipswich Rd', 'types': ['route']}, {'long_name': 'Riverview', 'short_name': 'Riverview', 'types': ['locality', 'political']}, {'long_name': 'City of Ipswich', 'short_name': 'City of Ipswich', 'types': ['administrative_area_level_2', 'political']}, {'long_name': 'Queensland', 'short_name': 'QLD', 'types': ['administrative_area_level_1', 'political']}, {'long_name': 'Australia', 'short_name': 'AU', 'types': ['country', 'political']}, {'long_name': '4303', 'short_name': '4303', 'types': ['postal_code']}], 'formatted_address': '131 Old Ipswich Rd, Riverview QLD 4303, Australia', 'geometry': {'location': {'lat': -27.6031855, 'lng': 152.8469854}, 'location_type': 'ROOFTOP', 'viewport': {'northeast': {'lat': -27.6018365197085, 'lng': 152.8483343802915}, 'southwest': {'lat': -27.6045344802915, 'lng': 152.8456364197085}}}, 'place_id': 'ChIJQ7q3hV5LkWsRkpCDKjkCLX0', 'plus_code': {'compound_code': '9RWW+PQ Riverview, Queensland, Australia', 'global_code': '5R4J9RWW+PQ'}, 'types': ['establishment', 'point_of_interest', 'school']}], 'status': 'OK'}",152.8469854,y
2016,11541,Marsden State School,Marsden,QLD,4132,Government,Primary,School Single Entity,Individual Reporting,Department of Education Queensland,Prep-6,Major Cities,922,57,30,11,2,73,67.7,40,28,986,474,512,986,11,31,"Marsden State School, Marsden, QLD, 4132","{'results': [{'address_components': [{'long_name': '32', 'short_name': '32', 'types': ['street_number']}, {'long_name': 'Hickory Street', 'short_name': 'Hickory St', 'types': ['route']}, {'long_name': 'Marsden', 'short_name': 'Marsden', 'types': ['locality', 'political']}, {'long_name': 'Logan City', 'short_name': 'Logan', 'types': ['administrative_area_level_2', 'political']}, {'long_name': 'Queensland', 'short_name': 'QLD', 'types': ['administrative_area_level_1', 'political']}, {'long_name': 'Australia', 'short_name': 'AU', 'types': ['country', 'political']}, {'long_name': '4132', 'short_name': '4132', 'types': ['postal_code']}], 'formatted_address': '32 Hickory St, Marsden QLD 4132, Australia', 'geometry': {'location': {'lat': -27.6856262, 'lng': 153.10476}, 'location_type': 'ROOFTOP', 'viewport': {'northeast': {'lat': -27.68427721970849, 'lng': 153.1061089802915}, 'southwest': {'lat': -27.6869751802915, 'lng': 153.1034110197085}}}, 'place_id': 'ChIJCY0hyM1GkWsRVOCzkuLk1dc', 'plus_code': {'compound_code': '8473+PW Marsden, Queensland, Australia', 'global_code': '5R4M8473+PW'}, 'types': ['establishment', 'point_of_interest', 'primary_school', 'school']}], 'status': 'OK'}",153.10476,y
2016,7104,Salisbury Primary School,Salisbury,SA,5108,Government,Primary,School Single Entity,Individual Reporting,Department for Education and Child Development South Australia,"U, R-7",Major Cities,938,52,29,15,4,30,27.8,15,11.6,371,189,182,371,6,38,"Salisbury Primary School, Salisbury, SA, 5108","{'results': [{'address_components': [{'long_name': '10', 'short_name': '10', 'types': ['street_number']}, {'long_name': 'Compuda Street', 'short_name': 'Compuda St', 'types': ['route']}, {'long_name': 'Salisbury', 'short_name': 'Salisbury', 'types': ['locality', 'political']}, {'long_name': 'City of Salisbury', 'short_name': 'Salisbury', 'types': ['administrative_area_level_2', 'political']}, {'long_name': 'South Australia', 'short_name': 'SA', 'types': ['administrative_area_level_1', 'political']}, {'long_name': 'Australia', 'short_name': 'AU', 'types': ['country', 'political']}, {'long_name': '5108', 'short_name': '5108', 'types': ['postal_code']}], 'formatted_address': '10 Compuda St, Salisbury SA 5108, Australia', 'geometry': {'location': {'lat': -34.7671309, 'lng': 138.6466466}, 'location_type': 'ROOFTOP', 'viewport': {'northeast': {'lat': -34.7657819197085, 'lng': 138.6479955802915}, 'southwest': {'lat': -34.7684798802915, 'lng': 138.6452976197085}}}, 'place_id': 'ChIJJ8s-ityzsGoRjAMkD-x9LE0', 'plus_code': {'compound_code': '6JMW+4M Adelaide, South Australia, Australia', 'global_code': '4QQW6JMW+4M'}, 'types': ['establishment', 'point_of_interest', 'primary_school', 'school']}], 'status': 'OK'}",138.6466466,y
2016,7071,Para Vista Primary School,Para Vista,SA,5093,Government,Primary,School Single Entity,Individual Reporting,Department for Education and Child Development South Australia,R-7,Major Cities,960,42,33,19,6,22,18.7,13,9.4,258,117,141,258,7,27,"Para Vista Primary School, Para Vista, SA, 5093","{'results': [{'address_components': [{'long_name': '351', 'short_name': '351', 'types': ['street_number']}, {'long_name': 'Montague Road', 'short_name': 'Montague Rd', 'types': ['route']}, {'long_name': 'Para Vista', 'short_name': 'Para Vista', 'types': ['locality', 'political']}, {'long_name': 'City of Salisbury', 'short_name': 'Salisbury', 'types': ['administrative_area_level_2', 'political']}, {'long_name': 'South Australia', 'short_name': 'SA', 'types': ['administrative_area_level_1', 'political']}, {'long_name': 'Australia', 'short_name': 'AU', 'types': ['country', 'political']}, {'long_name': '5093', 'short_name': '5093', 'types': ['postal_code']}], 'formatted_address': '351 Montague Rd, Para Vista SA 5093, Australia', 'geometry': {'location': {'lat': -34.8300948, 'lng': 138.6636245}, 'location_type': 'ROOFTOP', 'viewport': {'northeast': {'lat': -34.8287458197085, 'lng': 138.6649734802915}, 'southwest': {'lat': -34.8314437802915, 'lng': 138.6622755197085}}}, 'place_id': 'ChIJJR7m6Uu0sGoRJGjBHZWtAOU', 'plus_code': {'compound_code': '5M97+XC Adelaide, South Australia, Australia', 'global_code': '4QQW5M97+XC'}, 'types': ['establishment', 'point_of_interest', 'primary_school', 'school']}], 'status': 'OK'}",138.6636245,y
2016,7093,Karrendi Primary School,Parafield Gardens,SA,5107,Government,Primary,School Single Entity,Individual Reporting,Department for Education and Child Development South Australia,R-7,Major Cities,941,48,28,18,6,16,13.1,7,5.4,201,97,104,200.2,10,43,"Karrendi Primary School, Parafield Gardens, SA, 5107","{'results': [{'address_components': [{'long_name': '15', 'short_name': '15', 'types': ['street_number']}, {'long_name': 'Bradman Road', 'short_name': 'Bradman Rd', 'types': ['route']}, {'long_name': 'Parafield Gardens', 'short_name': 'Parafield Gardens', 'types': ['locality', 'political']}, {'long_name': 'City of Salisbury', 'short_name': 'Salisbury', 'types': ['administrative_area_level_2', 'political']}, {'long_name': 'South Australia', 'short_name': 'SA', 'types': ['administrative_area_level_1', 'political']}, {'long_name': 'Australia', 'short_name': 'AU', 'types': ['country', 'political']}, {'long_name': '5107', 'short_name': '5107', 'types': ['postal_code']}], 'formatted_address': '15 Bradman Rd, Parafield Gardens SA 5107, Australia', 'geometry': {'location': {'lat': -34.7912557, 'lng': 138.6186148}, 'location_type': 'ROOFTOP', 'viewport': {'northeast': {'lat': -34.7899067197085, 'lng': 138.6199637802915}, 'southwest': {'lat': -34.7926046802915, 'lng': 138.6172658197085}}}, 'place_id': 'ChIJORIZfce2sGoRGIwoGxi2GVA', 'plus_code': {'compound_code': '6J59+FC Adelaide, South Australia, Australia', 'global_code': '4QQW6J59+FC'}, 'types': ['establishment', 'point_of_interest', 'primary_school', 'school']}], 'status': 'OK'}",138.6186148,y
2016,313,St Brigid's School,Kilburn,SA,5084,Catholic,Primary,School Single Entity,Individual Reporting,Catholic Education South Australia,R-7,Major Cities,900,58,22,15,5,12,11.1,9,4.1,163,77,86,163,4,70,"St Brigid's School, Kilburn, SA, 5084","{'results': [{'address_components': [{'long_name': '45', 'short_name': '45', 'types': ['street_number']}, {'long_name': 'Way Street', 'short_name': 'Way St', 'types': ['route']}, {'long_name': 'Kilburn', 'short_name': 'Kilburn', 'types': ['locality', 'political']}, {'long_name': 'City of Port Adelaide Enfield', 'short_name': 'Port Adelaide Enfield', 'types': ['administrative_area_level_2', 'political']}, {'long_name': 'South Australia', 'short_name': 'SA', 'types': ['administrative_area_level_1', 'political']}, {'long_name': 'Australia', 'short_name': 'AU', 'types': ['country', 'political']}, {'long_name': '5084', 'short_name': '5084', 'types': ['postal_code']}], 'formatted_address': '45 Way St, Kilburn SA 5084, Australia', 'geometry': {'location': {'lat': -34.8615035, 'lng': 138.5877466}, 'location_type': 'ROOFTOP', 'viewport': {'northeast': {'lat': -34.8601545197085, 'lng': 138.5890955802915}, 'southwest': {'lat': -34.86285248029149, 'lng': 138.5863976197085}}}, 'place_id': 'ChIJzYYufUbIsGoRqBRQ2fbotFY', 'plus_code': {'compound_code': '4HQQ+93 Adelaide, South Australia, Australia', 'global_code': '4QQW4HQQ+93'}, 'types': ['establishment', 'point_of_interest', 'primary_school', 'school']}], 'status': 'OK'}",138.5877466,y
2016,310,St Augustine's Parish School,Salisbury,SA,5108,Catholic,Primary,School Single Entity,Individual Reporting,Catholic Education South Australia,R-7,Major Cities,986,30,31,25,14,42,38.1,22,12.7,605,295,310,605,2,25,"St Augustine's Parish School, Salisbury, SA, 5108","{'results': [{'address_components': [{'long_name': 'Salisbury', 'short_name': 'Salisbury', 'types': ['locality', 'political']}, {'long_name': 'City of Salisbury', 'short_name': 'Salisbury', 'types': ['administrative_area_level_2', 'political']}, {'long_name': 'South Australia', 'short_name': 'SA', 'types': ['administrative_area_level_1', 'political']}, {'long_name': 'Australia', 'short_name': 'AU', 'types': ['country', 'political']}, {'long_name': '5108', 'short_name': '5108', 'types': ['postal_code']}], 'formatted_address': 'Salisbury SA 5108, Australia', 'geometry': {'location': {'lat': -34.763626, 'lng': 138.65003}, 'location_type': 'GEOMETRIC_CENTER', 'viewport': {'northeast': {'lat': -34.76227701970849, 'lng': 138.6513789802915}, 'southwest': {'lat': -34.76497498029149, 'lng': 138.6486810197085}}}, 'place_id': 'ChIJ5wcj08-zsGoRpDgPxrllJbI', 'plus_code': {'compound_code': '6MP2+G2 Salisbury, South Australia, Australia', 'global_code': '4QQW6MP2+G2'}, 'types': ['establishment', 'point_of_interest', 'primary_school', 'school']}], 'status': 'OK'}",138.65003,y
2016,29163,Meadows Primary School,Broadmeadows,VIC,3047,Government,Primary,School Single Entity,Individual Reporting,Department of Education and Training Victoria,Prep-6,Major Cities,903,71,19,8,2,29,28.1,12,8.8,295,148,147,295,1,83,"Meadows Primary School, Broadmeadows, VIC, 3047","{'results': [{'address_components': [{'long_name': '41', 'short_name': '41', 'types': ['street_number']}, {'long_name': 'Gerbert Street', 'short_name': 'Gerbert St', 'types': ['route']}, {'long_name': 'Broadmeadows', 'short_name': 'Broadmeadows', 'types': ['locality', 'political']}, {'long_name': 'City of Hume', 'short_name': 'Hume', 'types': ['administrative_area_level_2', 'political']}, {'long_name': 'Victoria', 'short_name': 'VIC', 'types': ['administrative_area_level_1', 'political']}, {'long_name': 'Australia', 'short_name': 'AU', 'types': ['country', 'political']}, {'long_name': '3047', 'short_name': '3047', 'types': ['postal_code']}], 'formatted_address': '41 Gerbert St, Broadmeadows VIC 3047, Australia', 'geometry': {'location': {'lat': -37.68784220000001, 'lng': 144.9293208}, 'location_type': 'ROOFTOP', 'viewport': {'northeast': {'lat': -37.68649321970851, 'lng': 144.9306697802915}, 'southwest': {'lat': -37.68919118029151, 'lng': 144.9279718197085}}}, 'place_id': 'ChIJoe2ZgJRa1moRpj2HMKGhTpI', 'plus_code': {'compound_code': '8W6H+VP Broadmeadows, Victoria, Australia', 'global_code': '4RJ68W6H+VP'}, 'types': ['establishment', 'point_of_interest', 'primary_school', 'school']}], 'status': 'OK'}",144.9293208,y
2016,29823,Dallas Brooks Community Primary School,Dallas,VIC,3047,Government,Primary,School Single Entity,Individual Reporting,Department of Education and Training Victoria,Prep-6,Major Cities,907,71,19,9,2,34,33.2,34,19.4,496,249,247,494.1,1,92,"Dallas Brooks Community Primary School, Dallas, VIC, 3047","{'results': [{'address_components': [{'long_name': '26-36', 'short_name': '26-36', 'types': ['street_number']}, {'long_name': 'King Street', 'short_name': 'King St', 'types': ['route']}, {'long_name': 'Dallas', 'short_name': 'Dallas', 'types': ['locality', 'political']}, {'long_name': 'City of Hume', 'short_name': 'Hume', 'types': ['administrative_area_level_2', 'political']}, {'long_name': 'Victoria', 'short_name': 'VIC', 'types': ['administrative_area_level_1', 'political']}, {'long_name': 'Australia', 'short_name': 'AU', 'types': ['country', 'political']}, {'long_name': '3047', 'short_name': '3047', 'types': ['postal_code']}], 'formatted_address': '26-36 King St, Dallas VIC 3047, Australia', 'geometry': {'location': {'lat': -37.6708215, 'lng': 144.9426428}, 'location_type': 'ROOFTOP', 'viewport': {'northeast': {'lat': -37.6694725197085, 'lng': 144.9439917802915}, 'southwest': {'lat': -37.67217048029149, 'lng': 144.9412938197085}}}, 'place_id': 'ChIJW7S1KZxa1moRhByBa5hFyno', 'plus_code': {'compound_code': '8WHV+M3 Dallas, Victoria, Australia', 'global_code': '4RJ68WHV+M3'}, 'types': ['establishment', 'point_of_interest', 'primary_school', 'school']}], 'status': 'OK'}",144.9426428,y
2016,29139,Wyndham Park Primary School,Werribee,VIC,3030,Government,Primary,School Single Entity,Individual Reporting,Department of Education and Training Victoria,Prep-6,Major Cities,908,66,19,13,3,29,28.2,17,13.2,396,183,213,395.4,2,66,"Wyndham Park Primary School, Werribee, VIC, 3030","{'results': [{'address_components': [{'long_name': '77', 'short_name': '77', 'types': ['street_number']}, {'long_name': 'Kookaburra Avenue', 'short_name': 'Kookaburra Ave', 'types': ['route']}, {'long_name': 'Werribee', 'short_name': 'Werribee', 'types': ['locality', 'political']}, {'long_name': 'City of Wyndham', 'short_name': 'Wyndham', 'types': ['administrative_area_level_2', 'political']}, {'long_name': 'Victoria', 'short_name': 'VIC', 'types': ['administrative_area_level_1', 'political']}, {'long_name': 'Australia', 'short_name': 'AU', 'types': ['country', 'political']}, {'long_name': '3030', 'short_name': '3030', 'types': ['postal_code']}], 'formatted_address': '77 Kookaburra Ave, Werribee VIC 3030, Australia', 'geometry': {'location': {'lat': -37.8845529, 'lng': 144.676724}, 'location_type': 'ROOFTOP', 'viewport': {'northeast': {'lat': -37.88320391970849, 'lng': 144.6780729802915}, 'southwest': {'lat': -37.88590188029149, 'lng': 144.6753750197085}}}, 'place_id': 'ChIJ98HQhC6kJwARbGcCzv8sTRE', 'plus_code': {'compound_code': '4M8G+5M Werribee, Victoria, Australia', 'global_code': '4RJ64M8G+5M'}, 'types': ['establishment', 'point_of_interest', 'primary_school', 'school']}], 'status': 'OK'}",144.676724,y
2016,7040,Blair Athol North School B-7,Blair Athol,SA,5084,Government,Primary,School Single Entity,Individual Reporting,Department for Education and Child Development South Australia,"U, R-7",Major Cities,906,60,22,14,4,49,43.9,22,14,420,198,222,420,14,70,"Blair Athol North School B-7, Blair Athol, SA, 5084","{'results': [{'address_components': [{'long_name': '5', 'short_name': '5', 'types': ['street_number']}, {'long_name': 'Marmion Avenue', 'short_name': 'Marmion Ave', 'types': ['route']}, {'long_name': 'Blair Athol', 'short_name': 'Blair Athol', 'types': ['locality', 'political']}, {'long_name': 'City of Port Adelaide Enfield', 'short_name': 'Port Adelaide Enfield', 'types': ['administrative_area_level_2', 'political']}, {'long_name': 'South Australia', 'short_name': 'SA', 'types': ['administrative_area_level_1', 'political']}, {'long_name': 'Australia', 'short_name': 'AU', 'types': ['country', 'political']}, {'long_name': '5084', 'short_name': '5084', 'types': ['postal_code']}], 'formatted_address': '5 Marmion Ave, Blair Athol SA 5084, Australia', 'geometry': {'location': {'lat': -34.8527517, 'lng': 138.5989158}, 'location_type': 'ROOFTOP', 'viewport': {'northeast': {'lat': -34.8514027197085, 'lng': 138.6002647802915}, 'southwest': {'lat': -34.85410068029149, 'lng': 138.5975668197085}}}, 'place_id': 'ChIJi8-GrNLJsGoR_wcKrImzxR0', 'plus_code': {'compound_code': '4HWX+VH Adelaide, South Australia, Australia', 'global_code': '4QQW4HWX+VH'}, 'types': ['establishment', 'point_of_interest', 'school']}], 'status': 'OK'}",138.5989158,y
2016,28203,WoodLinks State School,Collingwood Park,QLD,4301,Government,Primary,School Single Entity,Individual Reporting,Department of Education Queensland,Prep-6,Major Cities,956,46,34,16,4,37,34.7,25,16.1,555,265,290,555,6,25,"WoodLinks State School, Collingwood Park, QLD, 4301","{'results': [{'address_components': [{'long_name': 'Woodlinks Way', 'short_name': 'Woodlinks Way', 'types': ['route']}, {'long_name': 'Collingwood Park', 'short_name': 'Collingwood Park', 'types': ['locality', 'political']}, {'long_name': 'City of Ipswich', 'short_name': 'City of Ipswich', 'types': ['administrative_area_level_2', 'political']}, {'long_name': 'Queensland', 'short_name': 'QLD', 'types': ['administrative_area_level_1', 'political']}, {'long_name': 'Australia', 'short_name': 'AU', 'types': ['country', 'political']}, {'long_name': '4301', 'short_name': '4301', 'types': ['postal_code']}], 'formatted_address': 'Woodlinks Way, Collingwood Park QLD 4301, Australia', 'geometry': {'location': {'lat': -27.6305582, 'lng': 152.8532399}, 'location_type': 'GEOMETRIC_CENTER', 'viewport': {'northeast': {'lat': -27.6292092197085, 'lng': 152.8545888802915},